code postal,insee,article,ville,ARTICLE,VILLE,libelle,region,nom region,dep,nom dep,longitude,latitude,codex,metaphone
1400,1001,L',Abergement-Clémenciat,L',ABERGEMENT-CLEMENCIAT,L ABERGEMENT CLEMENCIAT,82,RHONE-ALPES,1,Ain,46.151468,4.920059,A162,APRJMNTKLMNSTL
1640,1002,L',Abergement-de-Varey,L',ABERGEMENT-DE-VAREY,L ABERGEMENT DE VAREY,82,RHONE-ALPES,1,Ain,46.00593,5.425281,A162,APRJMNTTFRL
1500,1004,,Ambérieu-en-Bugey,,AMBERIEU-EN-BUGEY,AMBERIEU EN BUGEY,82,RHONE-ALPES,1,Ain,45.979851,5.33689,A516,AMPRNPJ
1330,1005,,Ambérieux-en-Dombes,,AMBERIEUX-EN-DOMBES,AMBERIEUX EN DOMBES,82,RHONE-ALPES,1,Ain,45.998057,4.902498,A516,AMPRKSNTMPS
1300,1006,,Ambléon,,AMBLEON,AMBLEON,82,RHONE-ALPES,1,Ain,45.74987,5.601326,A514,AMPLN
1500,1007,,Ambronay,,AMBRONAY,AMBRONAY,82,RHONE-ALPES,1,Ain,46.00648,5.35999,A516,AMPRN
1500,1008,,Ambutrix,,AMBUTRIX,AMBUTRIX,82,RHONE-ALPES,1,Ain,45.939594,5.338195,A513,AMPTRKS
1300,1009,,Andert-et-Condon,,ANDERT-ET-CONDON,ANDERT ET CONDON,82,RHONE-ALPES,1,Ain,45.794688,5.655624,A536,ANTRTTKNTN
1350,1010,,Anglefort,,ANGLEFORT,ANGLEFORT,82,RHONE-ALPES,1,Ain,45.91333,5.808992,A524,ANKLFRT
1100,1011,,Apremont,,APREMONT,APREMONT,82,RHONE-ALPES,1,Ain,46.207172,5.657787,A165,APRMNT
1110,1012,,Aranc,,ARANC,ARANC,82,RHONE-ALPES,1,Ain,46.003679,5.508627,A652,ARNK
1230,1013,,Arandas,,ARANDAS,ARANDAS,82,RHONE-ALPES,1,Ain,45.89596,5.488735,A653,ARNTS
1100,1014,,Arbent,,ARBENT,ARBENT,82,RHONE-ALPES,1,Ain,46.295735,5.6821,A615,ARPNT
1300,1015,,Arbignieu,,ARBIGNIEU,ARBIGNIEU,82,RHONE-ALPES,1,Ain,45.728482,5.650354,A612,ARPN
1190,1016,,Arbigny,,ARBIGNY,ARBIGNY,82,RHONE-ALPES,1,Ain,46.469456,4.961984,A612,ARPN
1230,1017,,Argis,,ARGIS,ARGIS,82,RHONE-ALPES,1,Ain,45.933505,5.491159,A622,ARJS
1510,1019,,Armix,,ARMIX,ARMIX,82,RHONE-ALPES,1,Ain,45.849253,5.585465,A652,ARMKS
1480,1021,,Ars-sur-Formans,,ARS-SUR-FORMANS,ARS SUR FORMANS,82,RHONE-ALPES,1,Ain,45.993535,4.82113,A626,ARSSRFRMNS
1510,1022,,Artemare,,ARTEMARE,ARTEMARE,82,RHONE-ALPES,1,Ain,45.871579,5.691073,A635,ARTMR
1570,1023,,Asnières-sur-Saône,,ASNIERES-SUR-SAONE,ASNIERES SUR SAONE,82,RHONE-ALPES,1,Ain,46.383037,4.883211,A256,ASNRSSRSN
1340,1024,,Attignat,,ATTIGNAT,ATTIGNAT,82,RHONE-ALPES,1,Ain,46.28472,5.16116,A325,ATNT
1380,1025,,Bâgé-la-Ville,,BAGE-LA-VILLE,BAGE LA VILLE,82,RHONE-ALPES,1,Ain,46.316575,4.946254,B241,PJLFL
1380,1026,,Bâgé-le-Châtel,,BAGE-LE-CHATEL,BAGE LE CHATEL,82,RHONE-ALPES,1,Ain,46.30863,4.930055,B242,PJLXTL
1360,1027,,Balan,,BALAN,BALAN,82,RHONE-ALPES,1,Ain,45.833836,5.097323,B450,PLN
1360,1027,,CAMP DE LA VALBONNE,,CAMP DE LA VALBONNE,CAMP DE LA VALBONNE,82,RHONE-ALPES,1,Ain,45.840061,5.13134,C513,KMPTLFLPN
1990,1028,,Baneins,,BANEINS,BANEINS,82,RHONE-ALPES,1,Ain,46.110265,4.90141,B552,PNNS
1270,1029,,Beaupont,,BEAUPONT,BEAUPONT,82,RHONE-ALPES,1,Ain,46.408616,5.257749,B153,PPNT
1480,1030,,Beauregard,,BEAUREGARD,BEAUREGARD,82,RHONE-ALPES,1,Ain,46.001985,4.75109,B626,PRKRT
1100,1031,,Bellignat,,BELLIGNAT,BELLIGNAT,82,RHONE-ALPES,1,Ain,46.242185,5.62927,B425,PLNT
1360,1032,,Béligneux,,BELIGNEUX,BELIGNEUX,82,RHONE-ALPES,1,Ain,45.86735,5.128375,B425,PLNKS
1200,1033,,Bellegarde-sur-Valserine,,BELLEGARDE-SUR-VALSERINE,BELLEGARDE SUR VALSERINE,82,RHONE-ALPES,1,Ain,46.108002,5.80771,B426,PLKRTSRFLSRN
1300,1034,,Belley,,BELLEY,BELLEY,82,RHONE-ALPES,1,Ain,45.725788,5.6676,B400,PL
1130,1035,,Belleydoux,,BELLEYDOUX,BELLEYDOUX,82,RHONE-ALPES,1,Ain,46.25529,5.77977,B432,PLTKS
1260,1036,,Belmont-Luthézieu,,BELMONT-LUTHEZIEU,BELMONT LUTHEZIEU,82,RHONE-ALPES,1,Ain,45.881738,5.664575,B455,PLMNTL0S
1470,1037,,Bénonces,,BENONCES,BENONCES,82,RHONE-ALPES,1,Ain,45.827695,5.473223,B552,PNNSS
1370,1038,,Bény,,BENY,BENY,82,RHONE-ALPES,1,Ain,46.31967,5.284208,B500,PN
1350,1039,,Béon,,BEON,BEON,82,RHONE-ALPES,1,Ain,45.854945,5.7496,B500,PN
1340,1040,,Béréziat,,BEREZIAT,BEREZIAT,82,RHONE-ALPES,1,Ain,46.363565,5.046675,B623,PRST
1500,1041,,Bettant,,BETTANT,BETTANT,82,RHONE-ALPES,1,Ain,45.94254,5.363918,B353,PTNT
1290,1042,,Bey,,BEY,BEY,82,RHONE-ALPES,1,Ain,46.219894,4.846076,B000,P
1700,1043,,Beynost,,BEYNOST,BEYNOST,82,RHONE-ALPES,1,Ain,45.839739,5.0047407,B523,PNST
1200,1044,,Billiat,,BILLIAT,BILLIAT,82,RHONE-ALPES,1,Ain,46.076035,5.78383,B430,PLT
1330,1045,,Birieux,,BIRIEUX,BIRIEUX,82,RHONE-ALPES,1,Ain,45.953105,5.03952,B620,PRKS
1290,1046,,Biziat,,BIZIAT,BIZIAT,82,RHONE-ALPES,1,Ain,46.216446,4.943642,B230,PST
1150,1047,,Blyes,,BLYES,BLYES,82,RHONE-ALPES,1,Ain,45.846045,5.248732,B420,PLS
1120,1049,La,Boisse,LA,BOISSE,LA BOISSE,82,RHONE-ALPES,1,Ain,45.84141,5.03281,B240,PSL
1190,1050,,Boissey,,BOISSEY,BOISSEY,82,RHONE-ALPES,1,Ain,46.434021,4.96365,B200,PS
1380,1050,,Boissey,,BOISSEY,BOISSEY,82,RHONE-ALPES,1,Ain,46.324921,4.97046,B200,PS
1450,1051,,Bolozon,,BOLOZON,BOLOZON,82,RHONE-ALPES,1,Ain,46.192096,5.473068,B425,PLSN
1330,1052,,Bouligneux,,BOULIGNEUX,BOULIGNEUX,82,RHONE-ALPES,1,Ain,46.02191,4.991543,B425,PLNKS
1000,1053,,Bourg-en-Bresse,,BOURG-EN-BRESSE,BOURG EN BRESSE,82,RHONE-ALPES,1,Ain,46.203289,5.22139,B625,PRKNPRS
1800,1054,,Bourg-Saint-Christophe,,BOURG-SAINT-CHRISTOPHE,BOURG ST CHRISTOPHE,82,RHONE-ALPES,1,Ain,45.890084,5.157391,B625,PRKSNTXRSTF
1640,1056,,Boyeux-Saint-Jérôme,,BOYEUX-SAINT-JEROME,BOYEUX ST JEROME,82,RHONE-ALPES,1,Ain,46.029585,5.4591,B253,PKSSNTJRM
1190,1057,,Boz,,BOZ,BOZ,82,RHONE-ALPES,1,Ain,46.406484,4.914559,B200,PS
1300,1058,,Brégnier-Cordon,,BREGNIER-CORDON,BREGNIER CORDON,82,RHONE-ALPES,1,Ain,45.64806,5.619225,B625,PRNRKRTN
1260,1059,,Brénaz,,BRENAZ,BRENAZ,82,RHONE-ALPES,1,Ain,45.947331,5.722475,B652,PRNS
1110,1060,,Brénod,,BRENOD,BRENOD,82,RHONE-ALPES,1,Ain,46.06089,5.60645,B653,PRNT
1300,1061,,Brens,,BRENS,BRENS,82,RHONE-ALPES,1,Ain,45.719728,5.695663,B652,PRNS
1360,1062,,Bressolles,,BRESSOLLES,BRESSOLLES,82,RHONE-ALPES,1,Ain,45.866555,5.09568,B624,PRSLS
1460,1063,,Brion,,BRION,BRION,82,RHONE-ALPES,1,Ain,46.171478,5.553961,B650,PRN
1470,1064,,Briord,,BRIORD,BRIORD,82,RHONE-ALPES,1,Ain,45.782268,5.459318,B663,PRRT
1310,1065,,Buellas,,BUELLAS,BUELLAS,82,RHONE-ALPES,1,Ain,46.2097,5.132595,B420,PLS
1510,1066,La,Burbanche,LA,BURBANCHE,LA BURBANCHE,82,RHONE-ALPES,1,Ain,45.84573,5.561075,B615,PRPNXL
1430,1067,,Ceignes,,CEIGNES,CEIGNES,82,RHONE-ALPES,1,Ain,46.119522,5.499698,C252,SNS
1450,1068,,Cerdon,,CERDON,CERDON,82,RHONE-ALPES,1,Ain,46.080358,5.465683,C635,SRTN
1240,1069,,Certines,,CERTINES,CERTINES,82,RHONE-ALPES,1,Ain,46.132439,5.264629,C635,SRTNS
1170,1071,,Cessy,,CESSY,CESSY,82,RHONE-ALPES,1,Ain,46.31868,6.071135,C200,SS
1250,1072,,Ceyzériat,,CEYZERIAT,CEYZERIAT,82,RHONE-ALPES,1,Ain,46.17879,5.324406,C263,SSRT
1350,1073,,Ceyzérieu,,CEYZERIEU,CEYZERIEU,82,RHONE-ALPES,1,Ain,45.836378,5.727308,C260,SSR
1320,1074,,Chalamont,,CHALAMONT,CHALAMONT,82,RHONE-ALPES,1,Ain,45.996905,5.17111,C455,XLMNT
1480,1075,,Chaleins,,CHALEINS,CHALEINS,82,RHONE-ALPES,1,Ain,46.030097,4.803852,C452,XLNS
1230,1076,,Chaley,,CHALEY,CHALEY,82,RHONE-ALPES,1,Ain,45.955202,5.531227,C400,XL
1450,1077,,CHALLES,,CHALLES,CHALLES,82,RHONE-ALPES,1,Ain,46.126282,5.4645,C420,XLS
1630,1078,,Challex,,CHALLEX,CHALLEX,82,RHONE-ALPES,1,Ain,46.17921,5.96849,C420,XLKS
1260,1079,,Champagne-en-Valromey,,CHAMPAGNE-EN-VALROMEY,CHAMPAGNE EN VALROMEY,82,RHONE-ALPES,1,Ain,45.90603,5.68151,C512,XMPNNFLRM
1110,1080,,Champdor,,CHAMPDOR,CHAMPDOR,82,RHONE-ALPES,1,Ain,46.016834,5.597021,C513,XMPTR
1410,1081,,Champfromier,,CHAMPFROMIER,CHAMPFROMIER,82,RHONE-ALPES,1,Ain,46.194498,5.816672,C516,XMPFRMR
1420,1082,,Chanay,,CHANAY,CHANAY,82,RHONE-ALPES,1,Ain,46.005586,5.78533,C500,XN
1990,1083,,Chaneins,,CHANEINS,CHANEINS,82,RHONE-ALPES,1,Ain,46.09713,4.851135,C552,XNNS
1400,1084,,Chanoz-Châtenay,,CHANOZ-CHATENAY,CHANOZ CHATENAY,82,RHONE-ALPES,1,Ain,46.184127,5.029097,C523,XNSXTN
1240,1085,La,Chapelle-du-Châtelard,LA,CHAPELLE-DU-CHATELARD,LA CHAPELLE DU CHATELARD,82,RHONE-ALPES,1,Ain,46.06895,5.023971,C143,XPLTXTLRTL
1130,1087,,Charix,,CHARIX,CHARIX,82,RHONE-ALPES,1,Ain,46.184014,5.684055,C620,XRKS
1800,1088,,Charnoz-sur-Ain,,CHARNOZ-SUR-AIN,CHARNOZ SUR AIN,82,RHONE-ALPES,1,Ain,45.869215,5.223999,C652,XRNSSRN
1500,1089,,Château-Gaillard,,CHATEAU-GAILLARD,CHATEAU GAILLARD,82,RHONE-ALPES,1,Ain,45.972897,5.304522,C324,XTKLRT
1320,1090,,Châtenay,,CHATENAY,CHATENAY,82,RHONE-ALPES,1,Ain,46.033594,5.200806,C350,XTN
1200,1091,,Châtillon-en-Michaille,,CHATILLON-EN-MICHAILLE,CHATILLON EN MICHAILLE,82,RHONE-ALPES,1,Ain,46.144124,5.79882,C345,XTLNNMXL
1320,1092,,Châtillon-la-Palud,,CHATILLON-LA-PALUD,CHATILLON LA PALUD,82,RHONE-ALPES,1,Ain,45.974265,5.256005,C345,XTLNLPLT
1400,1093,,Châtillon-sur-Chalaronne,,CHATILLON-SUR-CHALARONNE,CHATILLON SUR CHALARONNE,82,RHONE-ALPES,1,Ain,46.120691,4.956525,C345,XTLNSRXLRN
1190,1094,,Chavannes-sur-Reyssouze,,CHAVANNES-SUR-REYSSOUZE,CHAVANNES SUR REYSSOUZE,82,RHONE-ALPES,1,Ain,46.430579,4.995244,C152,XFNSSRRSS
1250,1095,,Chavannes-sur-Suran,,CHAVANNES-SUR-SURAN,CHAVANNES SUR SURAN,82,RHONE-ALPES,1,Ain,46.263035,5.425759,C152,XFNSSRSRN
1660,1096,,Chaveyriat,,CHAVEYRIAT,CHAVEYRIAT,82,RHONE-ALPES,1,Ain,46.19578,5.060605,C163,XFRT
1510,1097,,Chavornay,,CHAVORNAY,CHAVORNAY,82,RHONE-ALPES,1,Ain,45.880279,5.71322,C165,XFRN
1300,1098,,Chazey-Bons,,CHAZEY-BONS,CHAZEY BONS,82,RHONE-ALPES,1,Ain,45.806173,5.683015,C215,XSPNS
1150,1099,,Chazey-sur-Ain,,CHAZEY-SUR-AIN,CHAZEY SUR AIN,82,RHONE-ALPES,1,Ain,45.892951,5.2552,C226,XSSRN
1510,1100,,Cheignieu-la-Balme,,CHEIGNIEU-LA-BALME,CHEIGNIEU LA BALME,82,RHONE-ALPES,1,Ain,45.826602,5.606853,C254,XNLPLM
1430,1101,,Chevillard,,CHEVILLARD,CHEVILLARD,82,RHONE-ALPES,1,Ain,46.110573,5.579817,C146,XFLRT
1190,1102,,Chevroux,,CHEVROUX,CHEVROUX,82,RHONE-ALPES,1,Ain,46.381735,4.947876,C162,XFRKS
1170,1103,,Chevry,,CHEVRY,CHEVRY,82,RHONE-ALPES,1,Ain,46.27925,6.03602,C160,XFR
1200,1104,,Chézery-Forens,,CHEZERY-FORENS,CHEZERY FORENS,82,RHONE-ALPES,1,Ain,46.2224064,5.866846,C261,XSRFRNS
1410,1104,,Chézery-Forens,,CHEZERY-FORENS,CHEZERY FORENS,82,RHONE-ALPES,1,Ain,46.222247,5.866665,C261,XSRFRNS
1390,1105,,Civrieux,,CIVRIEUX,CIVRIEUX,82,RHONE-ALPES,1,Ain,45.921275,4.882158,C162,SFRKS
1250,1106,,Cize,,CIZE,CIZE,82,RHONE-ALPES,1,Ain,46.205191,5.445835,C200,SS
1230,1107,,Cleyzieu,,CLEYZIEU,CLEYZIEU,82,RHONE-ALPES,1,Ain,45.908069,5.428772,C420,KLS
1270,1108,,Coligny,,COLIGNY,COLIGNY,82,RHONE-ALPES,1,Ain,46.38204,5.34516,C425,KLN
1550,1109,,Collonges,,COLLONGES,COLLONGES,82,RHONE-ALPES,1,Ain,46.13812,5.90367,C452,KLNJS
1300,1110,,Colomieu,,COLOMIEU,COLOMIEU,82,RHONE-ALPES,1,Ain,45.733235,5.624105,C450,KLM
1230,1111,,Conand,,CONAND,CONAND,82,RHONE-ALPES,1,Ain,45.892845,5.471015,C553,KNNT
1430,1112,,Condamine,,CONDAMINE,CONDAMINE,82,RHONE-ALPES,1,Ain,46.110151,5.551357,C535,KNTMN
1400,1113,,Condeissiat,,CONDEISSIAT,CONDEISSIAT,82,RHONE-ALPES,1,Ain,46.157875,5.07953,C532,KNTST
1200,1114,,Confort,,CONFORT,CONFORT,82,RHONE-ALPES,1,Ain,46.150891,5.82273,C516,KNFRT
1310,1115,,Confrançon,,CONFRANCON,CONFRANCON,82,RHONE-ALPES,1,Ain,46.267546,5.065595,C516,KNFRNKN
1300,1116,,Contrevoz,,CONTREVOZ,CONTREVOZ,82,RHONE-ALPES,1,Ain,45.805718,5.627745,C536,KNTRFS
1300,1117,,Conzieu,,CONZIEU,CONZIEU,82,RHONE-ALPES,1,Ain,45.72689,5.606045,C520,KNS
1420,1118,,Corbonod,,CORBONOD,CORBONOD,82,RHONE-ALPES,1,Ain,45.96668,5.822204,C615,KRPNT
1110,1119,,Corcelles,,CORCELLES,CORCELLES,82,RHONE-ALPES,1,Ain,46.033465,5.573805,C624,KRSLS
1110,1121,,Corlier,,CORLIER,CORLIER,82,RHONE-ALPES,1,Ain,46.030208,5.498971,C646,KRLR
1110,1122,,Cormaranche-en-Bugey,,CORMARANCHE-EN-BUGEY,CORMARANCHE EN BUGEY,82,RHONE-ALPES,1,Ain,45.953941,5.612624,C656,KRMRNXNPJ
1290,1123,,Cormoranche-sur-Saône,,CORMORANCHE-SUR-SAONE,CORMORANCHE SUR SAONE,82,RHONE-ALPES,1,Ain,46.240167,4.831447,C656,KRMRNXSRSN
1560,1124,,Cormoz,,CORMOZ,CORMOZ,82,RHONE-ALPES,1,Ain,46.44799,5.232845,C652,KRMS
1250,1125,,Corveissiat,,CORVEISSIAT,CORVEISSIAT,82,RHONE-ALPES,1,Ain,46.243121,5.48208,C612,KRFST
1370,1127,,Courmangoux,,COURMANGOUX,COURMANGOUX,82,RHONE-ALPES,1,Ain,46.330588,5.369088,C655,KRMNKKS
1560,1128,,Courtes,,COURTES,COURTES,82,RHONE-ALPES,1,Ain,46.4593644,5.1009442,C632,KRTS
1320,1129,,Crans,,CRANS,CRANS,82,RHONE-ALPES,1,Ain,45.963685,5.191445,C652,KRNS
1340,1130,,Cras-sur-Reyssouze,,CRAS-SUR-REYSSOUZE,CRAS SUR REYSSOUZE,82,RHONE-ALPES,1,Ain,46.307899,5.164409,C626,KRSSRRSS
1350,1133,,Cressin-Rochefort,,CRESSIN-ROCHEFORT,CRESSIN ROCHEFORT,82,RHONE-ALPES,1,Ain,45.777611,5.76171,C625,KRSNRXFRT
1290,1134,,Crottet,,CROTTET,CROTTET,82,RHONE-ALPES,1,Ain,46.272727,4.896405,C633,KRTT
1750,1134,,Crottet,,CROTTET,CROTTET,82,RHONE-ALPES,1,Ain,46.2780159,4.8932696,C633,KRTT
1170,1135,,Crozet,,CROZET,CROZET,82,RHONE-ALPES,1,Ain,46.280031,6.015043,C623,KRST
1290,1136,,Cruzilles-lès-Mépillat,,CRUZILLES-LES-MEPILLAT,CRUZILLES LES MEPILLAT,82,RHONE-ALPES,1,Ain,46.223896,4.88182,C624,KRSLSLSMPLT
1350,1138,,Culoz,,CULOZ,CULOZ,82,RHONE-ALPES,1,Ain,45.848005,5.78753,C420,KLS
1560,1139,,Curciat-Dongalon,,CURCIAT-DONGALON,CURCIAT DONGALON,82,RHONE-ALPES,1,Ain,46.47461,5.159125,C623,KRSTTNKLN
1310,1140,,Curtafond,,CURTAFOND,CURTAFOND,82,RHONE-ALPES,1,Ain,46.271428,5.08886,C631,KRTFNT
1300,1141,,Cuzieu,,CUZIEU,CUZIEU,82,RHONE-ALPES,1,Ain,45.817213,5.683234,C200,KS
1120,1142,,Dagneux,,DAGNEUX,DAGNEUX,82,RHONE-ALPES,1,Ain,45.850729,5.074808,D252,TNKS
1220,1143,,Divonne-les-Bains,,DIVONNE-LES-BAINS,DIVONNE LES BAINS,82,RHONE-ALPES,1,Ain,46.35586,6.137995,D154,TFNLSPNS
1380,1144,,Dommartin,,DOMMARTIN,DOMMARTIN,82,RHONE-ALPES,1,Ain,46.337616,4.989823,D563,TMRTN
1240,1145,,Dompierre-sur-Veyle,,DOMPIERRE-SUR-VEYLE,DOMPIERRE SUR VEYLE,82,RHONE-ALPES,1,Ain,46.072233,5.203295,D516,TMPRSRFL
1400,1146,,Dompierre-sur-Chalaronne,,DOMPIERRE-SUR-CHALARONNE,DOMPIERRE SUR CHALARONNE,82,RHONE-ALPES,1,Ain,46.14172,4.907805,D516,TMPRSRXLRN
1270,1147,,Domsure,,DOMSURE,DOMSURE,82,RHONE-ALPES,1,Ain,46.419125,5.29461,D526,TMSR
1590,1148,,Dortan,,DORTAN,DORTAN,82,RHONE-ALPES,1,Ain,46.319515,5.66089,D635,TRTN
1500,1149,,Douvres,,DOUVRES,DOUVRES,82,RHONE-ALPES,1,Ain,45.989327,5.372536,D162,TFRS
1250,1150,,Drom,,DROM,DROM,82,RHONE-ALPES,1,Ain,46.218211,5.368049,D650,TRM
1160,1151,,Druillat,,DRUILLAT,DRUILLAT,82,RHONE-ALPES,1,Ain,46.059885,5.316055,D643,TRLT
1130,1152,,Échallon,,ECHALLON,ECHALLON,82,RHONE-ALPES,1,Ain,46.213274,5.738864,E245,AXLN
1170,1153,,Échenevex,,ECHENEVEX,ECHENEVEX,82,RHONE-ALPES,1,Ain,46.30924,6.03973,E251,AXNFKS
1340,1154,,Étrez,,ETREZ,ETREZ,82,RHONE-ALPES,1,Ain,46.33417,5.183955,E362,ATRS
1230,1155,,Évosges,,EVOSGES,EVOSGES,82,RHONE-ALPES,1,Ain,45.96067,5.49969,E122,AFSJS
1800,1156,,Faramans,,FARAMANS,FARAMANS,82,RHONE-ALPES,1,Ain,45.902979,5.125134,F655,FRMNS
1480,1157,,Fareins,,FAREINS,FAREINS,82,RHONE-ALPES,1,Ain,46.0187,4.761315,F652,FRNS
1550,1158,,Farges,,FARGES,FARGES,82,RHONE-ALPES,1,Ain,46.16769,5.90579,F622,FRJS
1570,1159,,Feillens,,FEILLENS,FEILLENS,82,RHONE-ALPES,1,Ain,46.334693,4.888951,F452,FLNS
1210,1160,,Ferney-Voltaire,,FERNEY-VOLTAIRE,FERNEY VOLTAIRE,82,RHONE-ALPES,1,Ain,46.276619,6.09891,F651,FRNFLTR
1350,1162,,Flaxieu,,FLAXIEU,FLAXIEU,82,RHONE-ALPES,1,Ain,45.808531,5.733923,F420,FLKS
1340,1163,,Foissiat,,FOISSIAT,FOISSIAT,82,RHONE-ALPES,1,Ain,46.37117,5.176583,F230,FST
1090,1165,,Francheleins,,FRANCHELEINS,FRANCHELEINS,82,RHONE-ALPES,1,Ain,46.073409,4.808608,F652,FRNXLNS
1480,1166,,Frans,,FRANS,FRANS,82,RHONE-ALPES,1,Ain,45.991585,4.77243,F652,FRNS
1140,1167,,Garnerans,,GARNERANS,GARNERANS,82,RHONE-ALPES,1,Ain,46.20588,4.840852,G656,KRNRNS
1090,1169,,Genouilleux,,GENOUILLEUX,GENOUILLEUX,82,RHONE-ALPES,1,Ain,46.119115,4.786415,G542,JNLKS
1460,1170,,GEOVREISSIAT,,GEOVREISSIAT,GEOVREISSIAT,82,RHONE-ALPES,1,Ain,46.189381,5.55573,G162,JFRST
1100,1171,,Géovreisset,,GEOVREISSET,GEOVREISSET,82,RHONE-ALPES,1,Ain,46.25552,5.617365,G162,JFRST
1250,1172,,Germagnat,,GERMAGNAT,GERMAGNAT,82,RHONE-ALPES,1,Ain,46.31069,5.44804,G652,KRMNT
1170,1173,,Gex,,GEX,GEX,82,RHONE-ALPES,1,Ain,46.335994,6.061129,G200,JKS
1130,1174,,Giron,,GIRON,GIRON,82,RHONE-ALPES,1,Ain,46.222587,5.774038,G650,JRN
1190,1175,,Gorrevod,,GORREVOD,GORREVOD,82,RHONE-ALPES,1,Ain,46.418428,4.93992,G613,KRFT
1260,1176,Le,Grand-Abergement,LE,GRAND-ABERGEMENT,LE GRAND ABERGEMENT,82,RHONE-ALPES,1,Ain,46.033106,5.673972,G653,KRNTPRJMNTL
1250,1177,,Grand-Corent,,GRAND-CORENT,GRAND CORENT,82,RHONE-ALPES,1,Ain,46.201951,5.4313,G653,KRNTKRNT
1290,1179,,Grièges,,GRIEGES,GRIEGES,82,RHONE-ALPES,1,Ain,46.257895,4.853505,G622,KRJS
1220,1180,,Grilly,,GRILLY,GRILLY,82,RHONE-ALPES,1,Ain,46.330167,6.1144,G640,KRL
1100,1181,,Groissiat,,GROISSIAT,GROISSIAT,82,RHONE-ALPES,1,Ain,46.221761,5.607938,G623,KRST
1680,1182,,Groslée,,GROSLEE,GROSLEE,82,RHONE-ALPES,1,Ain,45.71379,5.570169,G624,KRSL
1090,1183,,Guéreins,,GUEREINS,GUEREINS,82,RHONE-ALPES,1,Ain,46.104353,4.776236,G652,KRNS
1250,1184,,Hautecourt-Romanèche,,HAUTECOURT-ROMANECHE,HAUTECOURT ROMANECHE,82,RHONE-ALPES,1,Ain,46.159245,5.418138,H326,HTKRTRMNX
1110,1185,,Hauteville-Lompnes,,HAUTEVILLE-LOMPNES,HAUTEVILLE LOMPNES,82,RHONE-ALPES,1,Ain,45.977894,5.600384,H314,HTFLLMPNS
1110,1186,,HOSTIAS,,HOSTIAS,HOSTIAS,82,RHONE-ALPES,1,Ain,45.9011,5.53451,H232,HSXS
1260,1187,,Hotonnes,,HOTONNES,HOTONNES,82,RHONE-ALPES,1,Ain,45.996781,5.691184,H352,HTNS
1140,1188,,Illiat,,ILLIAT,ILLIAT,82,RHONE-ALPES,1,Ain,46.189624,4.888909,I430,ALT
1200,1189,,Injoux-Génissiat,,INJOUX-GENISSIAT,INJOUX GENISSIAT,82,RHONE-ALPES,1,Ain,46.052001,5.801945,I522,ANJKSJNST
1680,1190,,Innimond,,INNIMOND,INNIMOND,82,RHONE-ALPES,1,Ain,45.783454,5.571496,I555,ANMNT
1430,1191,,Izenave,,IZENAVE,IZENAVE,82,RHONE-ALPES,1,Ain,46.038255,5.524355,I251,ASNF
1580,1192,,Izernore,,IZERNORE,IZERNORE,82,RHONE-ALPES,1,Ain,46.218895,5.553955,I265,ASRNR
1300,1193,,Izieu,,IZIEU,IZIEU,82,RHONE-ALPES,1,Ain,45.651755,5.64112,I200,AS
1480,1194,,Jassans-Riottier,,JASSANS-RIOTTIER,JASSANS RIOTTIER,82,RHONE-ALPES,1,Ain,45.985905,4.756825,J252,JSNSRTR
1250,1195,,Jasseron,,JASSERON,JASSERON,82,RHONE-ALPES,1,Ain,46.21199,5.324055,J265,JSRN
1340,1196,,Jayat,,JAYAT,JAYAT,82,RHONE-ALPES,1,Ain,46.3699,5.12049,J300,JT
1250,1197,,Journans,,JOURNANS,JOURNANS,82,RHONE-ALPES,1,Ain,46.144472,5.330765,J655,JRNNS
1800,1198,,Joyeux,,JOYEUX,JOYEUX,82,RHONE-ALPES,1,Ain,45.961831,5.098791,J200,JKS
1640,1199,,Jujurieux,,JUJURIEUX,JUJURIEUX,82,RHONE-ALPES,1,Ain,46.03885,5.40631,J262,JJRKS
1450,1200,,Labalme,,LABALME,LABALME,82,RHONE-ALPES,1,Ain,46.094161,5.482259,L145,LPLM
1150,1202,,Lagnieu,,LAGNIEU,LAGNIEU,82,RHONE-ALPES,1,Ain,45.86805,5.42577,L250,LN
1290,1203,,Laiz,,LAIZ,LAIZ,82,RHONE-ALPES,1,Ain,46.245614,4.892015,L200,LS
1130,1204,,Lalleyriat,,LALLEYRIAT,LALLEYRIAT,82,RHONE-ALPES,1,Ain,46.15424,5.713585,L463,LLRT
1200,1205,,Lancrans,,LANCRANS,LANCRANS,82,RHONE-ALPES,1,Ain,46.12536,5.832482,L526,LNKRNS
1430,1206,,Lantenay,,LANTENAY,LANTENAY,82,RHONE-ALPES,1,Ain,46.056464,5.541003,L535,LNTN
1330,1207,,Lapeyrouse,,LAPEYROUSE,LAPEYROUSE,82,RHONE-ALPES,1,Ain,45.982775,4.97599,L162,LPRS
1350,1208,,Lavours,,LAVOURS,LAVOURS,82,RHONE-ALPES,1,Ain,45.809482,5.773383,L162,LFRS
1200,1209,,Léaz,,LEAZ,LEAZ,82,RHONE-ALPES,1,Ain,46.098426,5.883747,L200,LS
1410,1210,,Lélex,,LELEX,LELEX,82,RHONE-ALPES,1,Ain,46.301243,5.939582,L420,LLKS
1240,1211,,Lent,,LENT,LENT,82,RHONE-ALPES,1,Ain,46.117025,5.19442,L530,LNT
1560,1212,,Lescheroux,,LESCHEROUX,LESCHEROUX,82,RHONE-ALPES,1,Ain,46.407007,5.146292,L262,LXRKS
1150,1213,,Leyment,,LEYMENT,LEYMENT,82,RHONE-ALPES,1,Ain,45.923255,5.2941,L553,LMNT
1450,1214,,Leyssard,,LEYSSARD,LEYSSARD,82,RHONE-ALPES,1,Ain,46.156367,5.475269,L263,LSRT
1420,1215,,Lhôpital,,LHOPITAL,LHOPITAL,82,RHONE-ALPES,1,Ain,46.021908,5.779122,L134,LPTL
1680,1216,,Lhuis,,LHUIS,LHUIS,82,RHONE-ALPES,1,Ain,45.744784,5.535517,L200,LS
1260,1218,,Lochieu,,LOCHIEU,LOCHIEU,82,RHONE-ALPES,1,Ain,45.930729,5.726649,L200,LX
1680,1219,,Lompnas,,LOMPNAS,LOMPNAS,82,RHONE-ALPES,1,Ain,45.802587,5.520445,L515,LMPNS
1260,1221,,Lompnieu,,LOMPNIEU,LOMPNIEU,82,RHONE-ALPES,1,Ain,45.960582,5.659249,L515,LMPN
1360,1224,,Loyettes,,LOYETTES,LOYETTES,82,RHONE-ALPES,1,Ain,45.828461,5.16324,L320,LTS
1090,1225,,Lurcy,,LURCY,LURCY,82,RHONE-ALPES,1,Ain,46.063671,4.782199,L620,LRS
1300,1227,,Magnieu,,MAGNIEU,MAGNIEU,82,RHONE-ALPES,1,Ain,45.776474,5.718094,M250,MN
1430,1228,,Maillat,,MAILLAT,MAILLAT,82,RHONE-ALPES,1,Ain,46.128774,5.538408,M430,MLT
1340,1229,,Malafretaz,,MALAFRETAZ,MALAFRETAZ,82,RHONE-ALPES,1,Ain,46.321738,5.1452,M416,MLFRTS
1560,1230,,Mantenay-Montlin,,MANTENAY-MONTLIN,MANTENAY MONTLIN,82,RHONE-ALPES,1,Ain,46.423335,5.09936,M535,MNTNMNTLN
1570,1231,,Manziat,,MANZIAT,MANZIAT,82,RHONE-ALPES,1,Ain,46.35917,4.907165,M523,MNST
1851,1232,,Marboz,,MARBOZ,MARBOZ,82,RHONE-ALPES,1,Ain,46.34093,5.256685,M612,MRPS
1680,1233,,Marchamp,,MARCHAMP,MARCHAMP,82,RHONE-ALPES,1,Ain,45.787469,5.541979,M625,MRXMP
1300,1234,,Marignieu,,MARIGNIEU,MARIGNIEU,82,RHONE-ALPES,1,Ain,45.796441,5.719665,M625,MRN
1240,1235,,Marlieux,,MARLIEUX,MARLIEUX,82,RHONE-ALPES,1,Ain,46.064415,5.06874,M642,MRLKS
1340,1236,,Marsonnas,,MARSONNAS,MARSONNAS,82,RHONE-ALPES,1,Ain,46.33759,5.074585,M625,MRSNS
1100,1237,,Martignat,,MARTIGNAT,MARTIGNAT,82,RHONE-ALPES,1,Ain,46.208903,5.609009,M632,MRTNT
1600,1238,,Massieux,,MASSIEUX,MASSIEUX,82,RHONE-ALPES,1,Ain,45.90705,4.82391,M220,MSKS
1300,1239,,Massignieu-de-Rives,,MASSIGNIEU-DE-RIVES,MASSIGNIEU DE RIVES,82,RHONE-ALPES,1,Ain,45.75446,5.767,M225,MSNTRFS
1580,1240,,Matafelon-Granges,,MATAFELON-GRANGES,MATAFELON GRANGES,82,RHONE-ALPES,1,Ain,46.26138,5.55475,M314,MTFLNKRNJS
1370,1241,,Meillonnas,,MEILLONNAS,MEILLONNAS,82,RHONE-ALPES,1,Ain,46.242871,5.34971,M452,MLNS
1450,1242,,Mérignat,,MERIGNAT,MERIGNAT,82,RHONE-ALPES,1,Ain,46.06907,5.435525,M625,MRNT
1480,1243,,Messimy-sur-Saône,,MESSIMY-SUR-SAONE,MESSIMY SUR SAONE,82,RHONE-ALPES,1,Ain,46.049263,4.765824,M252,MSMSRSN
1800,1244,,Meximieux,,MEXIMIEUX,MEXIMIEUX,82,RHONE-ALPES,1,Ain,45.902425,5.190865,M252,MKSMKS
1250,1245,,Bohas-Meyriat-Rignat,,BOHAS-MEYRIAT-RIGNAT,BOHAS MEYRIAT RIGNAT,82,RHONE-ALPES,1,Ain,46.143495,5.357915,B256,PHSMRTRNT
1660,1246,,Mézériat,,MEZERIAT,MEZERIAT,82,RHONE-ALPES,1,Ain,46.23314,5.047246,M263,MSRT
1170,1247,,Mijoux,,MIJOUX,MIJOUX,82,RHONE-ALPES,1,Ain,46.323601,6.03226,M220,MJKS
1410,1247,,Mijoux,,MIJOUX,MIJOUX,82,RHONE-ALPES,1,Ain,46.287979,5.93009,M220,MJKS
1390,1248,,Mionnay,,MIONNAY,MIONNAY,82,RHONE-ALPES,1,Ain,45.8949,4.9311,M500,MN
1700,1249,,Miribel,,MIRIBEL,MIRIBEL,82,RHONE-ALPES,1,Ain,45.842491,4.95985,M614,MRPL
1600,1250,,Misérieux,,MISERIEUX,MISERIEUX,82,RHONE-ALPES,1,Ain,45.97414,4.81078,M262,MSRKS
1140,1252,,Mogneneins,,MOGNENEINS,MOGNENEINS,82,RHONE-ALPES,1,Ain,46.14215,4.807472,M255,MNNNS
1250,1254,,Montagnat,,MONTAGNAT,MONTAGNAT,82,RHONE-ALPES,1,Ain,46.170075,5.28408,M532,MNTNT
1470,1255,,Montagnieu,,MONTAGNIEU,MONTAGNIEU,82,RHONE-ALPES,1,Ain,45.792051,5.469299,M532,MNTN
1200,1257,,Montanges,,MONTANGES,MONTANGES,82,RHONE-ALPES,1,Ain,46.163475,5.801685,M535,MNTNJS
1090,1258,,Montceaux,,MONTCEAUX,MONTCEAUX,82,RHONE-ALPES,1,Ain,46.096305,4.796925,M532,MNTSKS
1310,1259,,Montcet,,MONTCET,MONTCET,82,RHONE-ALPES,1,Ain,46.212355,5.112325,M532,MNTST
1800,1260,Le,Montellier,LE,MONTELLIER,LE MONTELLIER,82,RHONE-ALPES,1,Ain,45.929985,5.07268,M534,MNTLRL
1390,1261,,Monthieux,,MONTHIEUX,MONTHIEUX,82,RHONE-ALPES,1,Ain,45.95728,4.9405,M532,MN0KS
1120,1262,,Montluel,,MONTLUEL,MONTLUEL,82,RHONE-ALPES,1,Ain,45.871391,5.03817,M534,MNTLL
1090,1263,,Montmerle-sur-Saône,,MONTMERLE-SUR-SAONE,MONTMERLE SUR SAONE,82,RHONE-ALPES,1,Ain,46.080975,4.75761,M535,MNTMRLSRSN
1310,1264,,Montracol,,MONTRACOL,MONTRACOL,82,RHONE-ALPES,1,Ain,46.19764,5.123375,M536,MNTRKL
1460,1265,,Montréal-la-Cluse,,MONTREAL-LA-CLUSE,MONTREAL LA CLUSE,82,RHONE-ALPES,1,Ain,46.172296,5.571682,M536,MNTRLLKLS
1340,1266,,Montrevel-en-Bresse,,MONTREVEL-EN-BRESSE,MONTREVEL EN BRESSE,82,RHONE-ALPES,1,Ain,46.33832,5.128075,M536,MNTRFLNPRS
1460,1267,,Nurieux-Volognat,,NURIEUX-VOLOGNAT,NURIEUX VOLOGNAT,82,RHONE-ALPES,1,Ain,46.18703,5.5248,N621,NRKSFLNT
1300,1268,,Murs-et-Gélignieux,,MURS-ET-GELIGNIEUX,MURS ET GELIGNIEUX,82,RHONE-ALPES,1,Ain,45.642341,5.660344,M623,MRSTJLNKS
1460,1269,,Nantua,,NANTUA,NANTUA,82,RHONE-ALPES,1,Ain,46.178421,5.56156,N530,NNT
1130,1269,,Nantua,,NANTUA,NANTUA,82,RHONE-ALPES,1,Ain,46.18993,5.70022,N530,NNT
1300,1271,,Nattages,,NATTAGES,NATTAGES,82,RHONE-ALPES,1,Ain,45.730809,5.762598,N322,NTJS
1400,1272,,Neuville-les-Dames,,NEUVILLE-LES-DAMES,NEUVILLE LES DAMES,82,RHONE-ALPES,1,Ain,46.162635,5.004275,N144,NFLLSTMS
1160,1273,,Neuville-sur-Ain,,NEUVILLE-SUR-AIN,NEUVILLE SUR AIN,82,RHONE-ALPES,1,Ain,46.082774,5.371249,N142,NFLSRN
1130,1274,Les,Neyrolles,LES,NEYROLLES,LES NEYROLLES,82,RHONE-ALPES,1,Ain,46.14133,5.63205,N642,NRLSLS
1700,1275,,Neyron,,NEYRON,NEYRON,82,RHONE-ALPES,1,Ain,45.81459,4.931805,N650,NRN
1120,1276,,Niévroz,,NIEVROZ,NIEVROZ,82,RHONE-ALPES,1,Ain,45.826526,5.065138,N162,NFRS
1230,1277,,Nivollet-Montgriffon,,NIVOLLET-MONTGRIFFON,NIVOLLET MONTGRIFFON,82,RHONE-ALPES,1,Ain,46.003061,5.470188,N143,NFLTMNTKRFN
1230,1279,,Oncieu,,ONCIEU,ONCIEU,82,RHONE-ALPES,1,Ain,45.959728,5.474327,O520,ANS
1510,1280,,Ordonnaz,,ORDONNAZ,ORDONNAZ,82,RHONE-ALPES,1,Ain,45.832869,5.535853,O635,ARTNS
1210,1281,,Ornex,,ORNEX,ORNEX,82,RHONE-ALPES,1,Ain,46.269165,6.098835,O652,ARNKS
1430,1282,,Outriaz,,OUTRIAZ,OUTRIAZ,82,RHONE-ALPES,1,Ain,46.066815,5.547385,O362,ATRS
1100,1283,,Oyonnax,,OYONNAX,OYONNAX,82,RHONE-ALPES,1,Ain,46.244061,5.64983,O520,ANKS
1190,1284,,Ozan,,OZAN,OZAN,82,RHONE-ALPES,1,Ain,46.389405,4.91508,O250,ASN
1600,1285,,Parcieux,,PARCIEUX,PARCIEUX,82,RHONE-ALPES,1,Ain,45.91542,4.824275,P622,PRSKS
1300,1286,,Parves,,PARVES,PARVES,82,RHONE-ALPES,1,Ain,45.7448,5.740035,P612,PRFS
1630,1288,,Péron,,PERON,PERON,82,RHONE-ALPES,1,Ain,46.18932,5.927005,P650,PRN
1960,1289,,Péronnas,,PERONNAS,PERONNAS,82,RHONE-ALPES,1,Ain,46.17317,5.198305,P652,PRNS
1800,1290,,Pérouges,,PEROUGES,PEROUGES,82,RHONE-ALPES,1,Ain,45.903766,5.177143,P622,PRJS
1540,1291,,Perrex,,PERREX,PERREX,82,RHONE-ALPES,1,Ain,46.245045,4.979545,P620,PRKS
1260,1292,Le,Petit-Abergement,LE,PETIT-ABERGEMENT,LE PETIT ABERGEMENT,82,RHONE-ALPES,1,Ain,46.033535,5.66361,P331,PTTPRJMNTL
1430,1293,,Peyriat,,PEYRIAT,PEYRIAT,82,RHONE-ALPES,1,Ain,46.153247,5.510894,P630,PRT
1300,1294,,Peyrieu,,PEYRIEU,PEYRIEU,82,RHONE-ALPES,1,Ain,45.677841,5.67618,P600,PR
1140,1295,,Peyzieux-sur-Saône,,PEYZIEUX-SUR-SAONE,PEYZIEUX SUR SAONE,82,RHONE-ALPES,1,Ain,46.127239,4.816712,P226,PSKSSRSN
1270,1296,,Pirajoux,,PIRAJOUX,PIRAJOUX,82,RHONE-ALPES,1,Ain,46.370522,5.29846,P622,PRJKS
1120,1297,,Pizay,,PIZAY,PIZAY,82,RHONE-ALPES,1,Ain,45.887854,5.089476,P200,PS
1130,1298,,Plagne,,PLAGNE,PLAGNE,82,RHONE-ALPES,1,Ain,46.192166,5.729023,P425,PLN
1330,1299,Le,Plantay,LE,PLANTAY,LE PLANTAY,82,RHONE-ALPES,1,Ain,46.02216,5.08898,P453,PLNTL
1130,1300,Le,Poizat,LE,POIZAT,LE POIZAT,82,RHONE-ALPES,1,Ain,46.144277,5.696115,P234,PSTL
1310,1301,,Polliat,,POLLIAT,POLLIAT,82,RHONE-ALPES,1,Ain,46.249525,5.124265,P430,PLT
1350,1302,,Pollieu,,POLLIEU,POLLIEU,82,RHONE-ALPES,1,Ain,45.79991,5.742135,P400,PL
1450,1303,,Poncin,,PONCIN,PONCIN,82,RHONE-ALPES,1,Ain,46.082675,5.4069,P525,PNSN
1160,1304,,Pont-d'Ain,,PONT-D'AIN,PONT D AIN,82,RHONE-ALPES,1,Ain,46.05162,5.33534,P535,PNTTN
1190,1305,,Pont-de-Vaux,,PONT-DE-VAUX,PONT DE VAUX,82,RHONE-ALPES,1,Ain,46.43237,4.9376,P531,PNTTFKS
1290,1306,,Pont-de-Veyle,,PONT-DE-VEYLE,PONT DE VEYLE,82,RHONE-ALPES,1,Ain,46.265173,4.888981,P531,PNTTFL
1460,1307,,Port,,PORT,PORT,82,RHONE-ALPES,1,Ain,46.163595,5.571045,P630,PRT
1550,1308,,Pougny,,POUGNY,POUGNY,82,RHONE-ALPES,1,Ain,46.140389,5.948284,P250,PN
1250,1309,,Pouillat,,POUILLAT,POUILLAT,82,RHONE-ALPES,1,Ain,46.327635,5.430075,P430,PLT
1300,1310,,Prémeyzel,,PREMEYZEL,PREMEYZEL,82,RHONE-ALPES,1,Ain,45.682505,5.64702,P652,PRMSL
1110,1311,,Prémillieu,,PREMILLIEU,PREMILLIEU,82,RHONE-ALPES,1,Ain,45.874106,5.571148,P654,PRML
1510,1311,,Prémillieu,,PREMILLIEU,PREMILLIEU,82,RHONE-ALPES,1,Ain,45.8740941,5.5718434,P654,PRML
1370,1312,,Pressiat,,PRESSIAT,PRESSIAT,82,RHONE-ALPES,1,Ain,46.32238,5.38455,P623,PRST
1280,1313,,Prévessin-Moëns,,PREVESSIN-MOENS,PREVESSIN MOENS,82,RHONE-ALPES,1,Ain,46.254601,6.082525,P612,PRFSNMNS
1160,1314,,Priay,,PRIAY,PRIAY,82,RHONE-ALPES,1,Ain,46.002455,5.28848,P600,PR
1510,1316,,Pugieu,,PUGIEU,PUGIEU,82,RHONE-ALPES,1,Ain,45.820292,5.647457,P200,PJ
1250,1317,,Ramasse,,RAMASSE,RAMASSE,82,RHONE-ALPES,1,Ain,46.192655,5.356346,R520,RMS
1390,1318,,Rancé,,RANCE,RANCE,82,RHONE-ALPES,1,Ain,45.96538,4.86992,R520,RNS
1990,1319,,Relevant,,RELEVANT,RELEVANT,82,RHONE-ALPES,1,Ain,46.0895,4.948774,R415,RLFNT
1750,1320,,Replonges,,REPLONGES,REPLONGES,82,RHONE-ALPES,1,Ain,46.301385,4.872405,R145,RPLNJS
1250,1321,,Revonnas,,REVONNAS,REVONNAS,82,RHONE-ALPES,1,Ain,46.162616,5.330715,R152,RFNS
1600,1322,,Reyrieux,,REYRIEUX,REYRIEUX,82,RHONE-ALPES,1,Ain,45.935005,4.823835,R620,RRKS
1190,1323,,Reyssouze,,REYSSOUZE,REYSSOUZE,82,RHONE-ALPES,1,Ain,46.428035,4.921788,R220,RSS
1800,1325,,Rignieux-le-Franc,,RIGNIEUX-LE-FRANC,RIGNIEUX LE FRANC,82,RHONE-ALPES,1,Ain,45.939671,5.1879,R252,RNKSLFRNK
1400,1328,,Romans,,ROMANS,ROMANS,82,RHONE-ALPES,1,Ain,46.12168,5.024695,R552,RMNS
1510,1329,,Rossillon,,ROSSILLON,ROSSILLON,82,RHONE-ALPES,1,Ain,45.83411,5.591998,R245,RSLN
1260,1330,,Ruffieu,,RUFFIEU,RUFFIEU,82,RHONE-ALPES,1,Ain,45.995421,5.664017,R100,RF
1450,1331,,Saint-Alban,,SAINT-ALBAN,ST ALBAN,82,RHONE-ALPES,1,Ain,46.096091,5.453552,S534,SNTLPN
1380,1332,,Saint-André-de-Bâgé,,SAINT-ANDRE-DE-BAGE,ST ANDRE DE BAGE,82,RHONE-ALPES,1,Ain,46.302925,4.925005,S535,SNTNTRTPJ
1390,1333,,Saint-André-de-Corcy,,SAINT-ANDRE-DE-CORCY,ST ANDRE DE CORCY,82,RHONE-ALPES,1,Ain,45.92577,4.95079,S535,SNTNTRTKRS
1290,1334,,Saint-André-d'Huiriat,,SAINT-ANDRE-D'HUIRIAT,ST ANDRE D HUIRIAT,82,RHONE-ALPES,1,Ain,46.212521,4.912146,S535,SNTNTRTRT
1240,1335,,Saint-André-le-Bouchoux,,SAINT-ANDRE-LE-BOUCHOUX,ST ANDRE LE BOUCHOUX,82,RHONE-ALPES,1,Ain,46.116712,5.077486,S535,SNTNTRLPXKS
1960,1336,,Saint-André-sur-Vieux-Jonc,,SAINT-ANDRE-SUR-VIEUX-JONC,ST ANDRE SUR VIEUX JONC,82,RHONE-ALPES,1,Ain,46.155968,5.145541,S535,SNTNTRSRFKSJNK
1190,1337,,Saint-Bénigne,,SAINT-BENIGNE,ST BENIGNE,82,RHONE-ALPES,1,Ain,46.438518,4.969149,S531,SNTPNN
1300,1338,,Saint-Benoît,,SAINT-BENOIT,ST BENOIT,82,RHONE-ALPES,1,Ain,45.69409,5.587686,S531,SNTPNT
1600,1339,,Saint-Bernard,,SAINT-BERNARD,ST BERNARD,82,RHONE-ALPES,1,Ain,45.94502,4.73471,S531,SNTPRNRT
1300,1340,,Saint-Bois,,SAINT-BOIS,ST BOIS,82,RHONE-ALPES,1,Ain,45.700432,5.641207,S531,SNTPS
1300,1341,,Saint-Champ,,SAINT-CHAMP,ST CHAMP,82,RHONE-ALPES,1,Ain,45.77429,5.733135,S532,SNTXMP
1120,1342,,Sainte-Croix,,SAINTE-CROIX,STE CROIX,82,RHONE-ALPES,1,Ain,45.89552,5.0527,S532,SNTKRKS
1380,1343,,Saint-Cyr-sur-Menthon,,SAINT-CYR-SUR-MENTHON,ST CYR SUR MENTHON,82,RHONE-ALPES,1,Ain,46.275405,4.975865,S532,SNTSRSRMN0N
1000,1344,,Saint-Denis-lès-Bourg,,SAINT-DENIS-LES-BOURG,ST DENIS LES BOURG,82,RHONE-ALPES,1,Ain,46.19981,5.189545,S535,SNTTNSLSPRK
1500,1345,,Saint-Denis-en-Bugey,,SAINT-DENIS-EN-BUGEY,ST DENIS EN BUGEY,82,RHONE-ALPES,1,Ain,45.951585,5.32805,S535,SNTTNSNPJ
1340,1346,,Saint-Didier-d'Aussiat,,SAINT-DIDIER-D'AUSSIAT,ST DIDIER D AUSSIAT,82,RHONE-ALPES,1,Ain,46.305919,5.060109,S533,SNTTTRTST
1600,1347,,Saint-Didier-de-Formans,,SAINT-DIDIER-DE-FORMANS,ST DIDIER DE FORMANS,82,RHONE-ALPES,1,Ain,45.956056,4.779553,S533,SNTTTRTFRMNS
1140,1348,,Saint-Didier-sur-Chalaronne,,SAINT-DIDIER-SUR-CHALARONNE,ST DIDIER SUR CHALARONNE,82,RHONE-ALPES,1,Ain,46.17818,4.818513,S533,SNTTTRSRXLRN
1800,1349,,Saint-Éloi,,SAINT-ELOI,ST ELOI,82,RHONE-ALPES,1,Ain,45.933286,5.152542,S534,SNTL
1370,1350,,Saint-Étienne-du-Bois,,SAINT-ETIENNE-DU-BOIS,ST ETIENNE DU BOIS,82,RHONE-ALPES,1,Ain,46.28793,5.294035,S533,SNTTNTPS
1140,1351,,Saint-Étienne-sur-Chalaronne,,SAINT-ETIENNE-SUR-CHALARONNE,ST ETIENNE SUR CHALARONNE,82,RHONE-ALPES,1,Ain,46.14744,4.866265,S533,SNTTNSRXLRN
1190,1352,,Saint-Étienne-sur-Reyssouze,,SAINT-ETIENNE-SUR-REYSSOUZE,ST ETIENNE SUR REYSSOUZE,82,RHONE-ALPES,1,Ain,46.414788,4.998564,S533,SNTTNSRRSS
1600,1353,,Sainte-Euphémie,,SAINTE-EUPHEMIE,STE EUPHEMIE,82,RHONE-ALPES,1,Ain,45.97254,4.796075,S531,SNTFM
1630,1354,,Saint-Genis-Pouilly,,SAINT-GENIS-POUILLY,ST GENIS POUILLY,82,RHONE-ALPES,1,Ain,46.218288,5.96319,S532,SNTJNSPL
1380,1355,,Saint-Genis-sur-Menthon,,SAINT-GENIS-SUR-MENTHON,ST GENIS SUR MENTHON,82,RHONE-ALPES,1,Ain,46.281172,5.00785,S532,SNTJNSSRMN0N
1400,1356,,Saint-Georges-sur-Renon,,SAINT-GEORGES-SUR-RENON,ST GEORGES SUR RENON,82,RHONE-ALPES,1,Ain,46.105403,5.031261,S532,SNTJRJSSRRNN
1130,1357,,Saint-Germain-de-Joux,,SAINT-GERMAIN-DE-JOUX,ST GERMAIN DE JOUX,82,RHONE-ALPES,1,Ain,46.17925,5.73822,S532,SNTKRMNTJKS
1300,1358,,Saint-Germain-les-Paroisses,,SAINT-GERMAIN-LES-PAROISSES,ST GERMAIN LES PAROISSES,82,RHONE-ALPES,1,Ain,45.77379,5.61861,S532,SNTKRMNLSPRSS
1240,1359,,Saint-Germain-sur-Renon,,SAINT-GERMAIN-SUR-RENON,ST GERMAIN SUR RENON,82,RHONE-ALPES,1,Ain,46.080382,5.057676,S532,SNTKRMNSRRNN
1630,1360,,Saint-Jean-de-Gonville,,SAINT-JEAN-DE-GONVILLE,ST JEAN DE GONVILLE,82,RHONE-ALPES,1,Ain,46.21116,5.955077,S532,SNTJNTKNFL
1800,1361,,Saint-Jean-de-Niost,,SAINT-JEAN-DE-NIOST,ST JEAN DE NIOST,82,RHONE-ALPES,1,Ain,45.839067,5.218428,S532,SNTJNTNST
1390,1362,,Saint-Jean-de-Thurigneux,,SAINT-JEAN-DE-THURIGNEUX,ST JEAN DE THURIGNEUX,82,RHONE-ALPES,1,Ain,45.95173,4.88248,S532,SNTJNT0RNKS
1640,1363,,Saint-Jean-le-Vieux,,SAINT-JEAN-LE-VIEUX,ST JEAN LE VIEUX,82,RHONE-ALPES,1,Ain,46.029445,5.389868,S532,SNTJNLFKS
1560,1364,,Saint-Jean-sur-Reyssouze,,SAINT-JEAN-SUR-REYSSOUZE,ST JEAN SUR REYSSOUZE,82,RHONE-ALPES,1,Ain,46.396719,5.063177,S532,SNTJNSRRSS
1290,1365,,Saint-Jean-sur-Veyle,,SAINT-JEAN-SUR-VEYLE,ST JEAN SUR VEYLE,82,RHONE-ALPES,1,Ain,46.257802,4.916068,S532,SNTJNSRFL
1150,1366,,Sainte-Julie,,SAINTE-JULIE,STE JULIE,82,RHONE-ALPES,1,Ain,45.88914,5.278195,S532,SNTJL
1560,1367,,Saint-Julien-sur-Reyssouze,,SAINT-JULIEN-SUR-REYSSOUZE,ST JULIEN SUR REYSSOUZE,82,RHONE-ALPES,1,Ain,46.400726,5.112428,S532,SNTJLNSRRSS
1540,1368,,Saint-Julien-sur-Veyle,,SAINT-JULIEN-SUR-VEYLE,ST JULIEN SUR VEYLE,82,RHONE-ALPES,1,Ain,46.200995,4.954965,S532,SNTJLNSRFL
1250,1369,,Saint-Just,,SAINT-JUST,ST JUST,82,RHONE-ALPES,1,Ain,46.192025,5.27974,S532,SNTJST
1750,1370,,Saint-Laurent-sur-Saône,,SAINT-LAURENT-SUR-SAONE,ST LAURENT SUR SAONE,82,RHONE-ALPES,1,Ain,46.304725,4.840375,S534,SNTLRNTSRSN
1390,1371,,Saint-Marcel,,SAINT-MARCEL,ST MARCEL,82,RHONE-ALPES,1,Ain,45.94853,4.98574,S535,SNTMRSL
1510,1372,,Saint-Martin-de-Bavel,,SAINT-MARTIN-DE-BAVEL,ST MARTIN DE BAVEL,82,RHONE-ALPES,1,Ain,45.848602,5.675831,S535,SNTMRTNTPFL
1430,1373,,Saint-Martin-du-Frêne,,SAINT-MARTIN-DU-FRENE,ST MARTIN DU FRENE,82,RHONE-ALPES,1,Ain,46.137178,5.55191,S535,SNTMRTNTFRN
1160,1374,,Saint-Martin-du-Mont,,SAINT-MARTIN-DU-MONT,ST MARTIN DU MONT,82,RHONE-ALPES,1,Ain,46.101985,5.326944,S535,SNTMRTNTMNT
1310,1375,,Saint-Martin-le-Châtel,,SAINT-MARTIN-LE-CHATEL,ST MARTIN LE CHATEL,82,RHONE-ALPES,1,Ain,46.282604,5.11678,S535,SNTMRTNLXTL
1700,1376,,Saint-Maurice-de-Beynost,,SAINT-MAURICE-DE-BEYNOST,ST MAURICE DE BEYNOST,82,RHONE-ALPES,1,Ain,45.82926,4.97759,S535,SNTMRSTPNST
1800,1378,,Saint-Maurice-de-Gourdans,,SAINT-MAURICE-DE-GOURDANS,ST MAURICE DE GOURDANS,82,RHONE-ALPES,1,Ain,45.820589,5.193582,S535,SNTMRSTKRTNS
1500,1379,,Saint-Maurice-de-Rémens,,SAINT-MAURICE-DE-REMENS,ST MAURICE DE REMENS,82,RHONE-ALPES,1,Ain,45.95903,5.274515,S535,SNTMRSTRMNS
1560,1380,,Saint-Nizier-le-Bouchoux,,SAINT-NIZIER-LE-BOUCHOUX,ST NIZIER LE BOUCHOUX,82,RHONE-ALPES,1,Ain,46.460765,5.148526,S535,SNTNSRLPXKS
1320,1381,,Saint-Nizier-le-Désert,,SAINT-NIZIER-LE-DESERT,ST NIZIER LE DESERT,82,RHONE-ALPES,1,Ain,46.05518,5.148225,S535,SNTNSRLTSRT
1330,1382,,Sainte-Olive,,SAINTE-OLIVE,STE OLIVE,82,RHONE-ALPES,1,Ain,46.019556,4.928816,S534,SNTLF
1240,1383,,Saint-Paul-de-Varax,,SAINT-PAUL-DE-VARAX,ST PAUL DE VARAX,82,RHONE-ALPES,1,Ain,46.099798,5.129633,S531,SNTPLTFRKS
1230,1384,,Saint-Rambert-en-Bugey,,SAINT-RAMBERT-EN-BUGEY,ST RAMBERT EN BUGEY,82,RHONE-ALPES,1,Ain,45.946215,5.435662,S536,SNTRMPRTNPJ
1310,1385,,Saint-Rémy,,SAINT-REMY,ST REMY,82,RHONE-ALPES,1,Ain,46.189147,5.167795,S536,SNTRM
1150,1386,,Saint-Sorlin-en-Bugey,,SAINT-SORLIN-EN-BUGEY,ST SORLIN EN BUGEY,82,RHONE-ALPES,1,Ain,45.8844,5.37169,S532,SNTSRLNNPJ
1340,1387,,Saint-Sulpice,,SAINT-SULPICE,ST SULPICE,82,RHONE-ALPES,1,Ain,46.320371,5.041462,S532,SNTSLPS
1560,1388,,Saint-Trivier-de-Courtes,,SAINT-TRIVIER-DE-COURTES,ST TRIVIER DE COURTES,82,RHONE-ALPES,1,Ain,46.459265,5.077335,S536,SNTTRFRTKRTS
1990,1389,,Saint-Trivier-sur-Moignans,,SAINT-TRIVIER-SUR-MOIGNANS,ST TRIVIER SUR MOIGNANS,82,RHONE-ALPES,1,Ain,46.07181,4.89806,S536,SNTTRFRSRMNNS
1150,1390,,Saint-Vulbas,,SAINT-VULBAS,ST VULBAS,82,RHONE-ALPES,1,Ain,45.832561,5.290171,S531,SNTFLPS
1270,1391,,Salavre,,SALAVRE,SALAVRE,82,RHONE-ALPES,1,Ain,46.364135,5.347371,S416,SLFR
1580,1392,,Samognat,,SAMOGNAT,SAMOGNAT,82,RHONE-ALPES,1,Ain,46.257873,5.57649,S525,SMNT
1400,1393,,Sandrans,,SANDRANS,SANDRANS,82,RHONE-ALPES,1,Ain,46.06348,4.981025,S536,SNTRNS
1150,1396,,Sault-Brénaz,,SAULT-BRENAZ,SAULT BRENAZ,82,RHONE-ALPES,1,Ain,45.85448,5.409664,S431,SLTPRNS
1220,1397,,Sauverny,,SAUVERNY,SAUVERNY,82,RHONE-ALPES,1,Ain,46.315625,6.114775,S165,SFRN
1480,1398,,Savigneux,,SAVIGNEUX,SAVIGNEUX,82,RHONE-ALPES,1,Ain,46.00076,4.847845,S125,SFNKS
1170,1399,,Ségny,,SEGNY,SEGNY,82,RHONE-ALPES,1,Ain,46.296966,6.074635,S250,SN
1470,1400,,Seillonnaz,,SEILLONNAZ,SEILLONNAZ,82,RHONE-ALPES,1,Ain,45.806714,5.489466,S452,SLNS
1630,1401,,Sergy,,SERGY,SERGY,82,RHONE-ALPES,1,Ain,46.253315,5.99785,S620,SRJ
1190,1402,,Sermoyer,,SERMOYER,SERMOYER,82,RHONE-ALPES,1,Ain,46.494655,4.979458,S656,SRMR
1470,1403,,Serrières-de-Briord,,SERRIERES-DE-BRIORD,SERRIERES DE BRIORD,82,RHONE-ALPES,1,Ain,45.808895,5.45294,S662,SRRSTPRRT
1450,1404,,Serrières-sur-Ain,,SERRIERES-SUR-AIN,SERRIERES SUR AIN,82,RHONE-ALPES,1,Ain,46.151998,5.452523,S662,SRRSSRN
1960,1405,,Servas,,SERVAS,SERVAS,82,RHONE-ALPES,1,Ain,46.135655,5.1673,S612,SRFS
1560,1406,,Servignat,,SERVIGNAT,SERVIGNAT,82,RHONE-ALPES,1,Ain,46.433308,5.069451,S612,SRFNT
1420,1407,,Seyssel,,SEYSSEL,SEYSSEL,82,RHONE-ALPES,1,Ain,45.955165,5.83143,S240,SSL
1250,1408,,Simandre-sur-Suran,,SIMANDRE-SUR-SURAN,SIMANDRE SUR SURAN,82,RHONE-ALPES,1,Ain,46.22472,5.4163,S553,SMNTRSRSRN
1260,1409,,Songieu,,SONGIEU,SONGIEU,82,RHONE-ALPES,1,Ain,45.973,5.7014,S520,SNJ
1580,1410,,Sonthonnax-la-Montagne,,SONTHONNAX-LA-MONTAGNE,SONTHONNAX LA MONTAGNE,82,RHONE-ALPES,1,Ain,46.230777,5.523391,S535,SN0NKSLMNTN
1150,1411,,Souclin,,SOUCLIN,SOUCLIN,82,RHONE-ALPES,1,Ain,45.877097,5.42134,S245,SKLN
1400,1412,,Sulignat,,SULIGNAT,SULIGNAT,82,RHONE-ALPES,1,Ain,46.17578,4.96418,S425,SLNT
1420,1413,,Surjoux,,SURJOUX,SURJOUX,82,RHONE-ALPES,1,Ain,46.023967,5.803166,S622,SRJKS
1260,1414,,Sutrieu,,SUTRIEU,SUTRIEU,82,RHONE-ALPES,1,Ain,45.950285,5.657865,S360,STR
1510,1415,,Talissieu,,TALISSIEU,TALISSIEU,82,RHONE-ALPES,1,Ain,45.864305,5.726553,T420,TLS
1230,1416,,Tenay,,TENAY,TENAY,82,RHONE-ALPES,1,Ain,45.915995,5.509715,T500,TN
1110,1417,,Thézillieu,,THEZILLIEU,THEZILLIEU,82,RHONE-ALPES,1,Ain,45.89342,5.597035,T240,0SL
1120,1418,,Thil,,THIL,THIL,82,RHONE-ALPES,1,Ain,45.815003,5.021161,T400,0L
1710,1419,,Thoiry,,THOIRY,THOIRY,82,RHONE-ALPES,1,Ain,46.23624,5.98033,T600,0R
1140,1420,,Thoissey,,THOISSEY,THOISSEY,82,RHONE-ALPES,1,Ain,46.172559,4.802998,T200,0S
1230,1421,,Torcieu,,TORCIEU,TORCIEU,82,RHONE-ALPES,1,Ain,45.921424,5.396754,T620,TRS
1250,1422,,Tossiat,,TOSSIAT,TOSSIAT,82,RHONE-ALPES,1,Ain,46.139223,5.316556,T230,TST
1600,1423,,Toussieux,,TOUSSIEUX,TOUSSIEUX,82,RHONE-ALPES,1,Ain,45.960969,4.828405,T220,TSKS
1390,1424,,Tramoyes,,TRAMOYES,TRAMOYES,82,RHONE-ALPES,1,Ain,45.874378,4.96356,T652,TRMS
1160,1425,La,Tranclière,LA,TRANCLIERE,LA TRANCLIERE,82,RHONE-ALPES,1,Ain,46.110796,5.262955,T652,TRNKLRL
1370,1426,,Treffort-Cuisiat,,TREFFORT-CUISIAT,TREFFORT CUISIAT,82,RHONE-ALPES,1,Ain,46.269922,5.367797,T616,TRFRTKST
1600,1427,,Trévoux,,TREVOUX,TREVOUX,82,RHONE-ALPES,1,Ain,45.946789,4.80216,T612,TRFKS
1140,1428,,Valeins,,VALEINS,VALEINS,82,RHONE-ALPES,1,Ain,46.11229,4.87112,V452,FLNS
1660,1429,,Vandeins,,VANDEINS,VANDEINS,82,RHONE-ALPES,1,Ain,46.22021,5.07746,V535,FNTNS
1160,1430,,Varambon,,VARAMBON,VARAMBON,82,RHONE-ALPES,1,Ain,46.041995,5.317565,V651,FRMPN
1150,1431,,Vaux-en-Bugey,,VAUX-EN-BUGEY,VAUX EN BUGEY,82,RHONE-ALPES,1,Ain,45.927315,5.35386,V251,FKSNPJ
1270,1432,,Verjon,,VERJON,VERJON,82,RHONE-ALPES,1,Ain,46.345305,5.352425,V625,FRJN
1560,1433,,Vernoux,,VERNOUX,VERNOUX,82,RHONE-ALPES,1,Ain,46.480115,5.109745,V652,FRNKS
1330,1434,,Versailleux,,VERSAILLEUX,VERSAILLEUX,82,RHONE-ALPES,1,Ain,45.980261,5.102216,V624,FRSLKS
1210,1435,,Versonnex,,VERSONNEX,VERSONNEX,82,RHONE-ALPES,1,Ain,46.30384,6.09771,V625,FRSNKS
1170,1436,,Vesancy,,VESANCY,VESANCY,82,RHONE-ALPES,1,Ain,46.347982,6.090259,V252,FSNS
1560,1437,,Vescours,,VESCOURS,VESCOURS,82,RHONE-ALPES,1,Ain,46.476233,5.025342,V262,FSKRS
1570,1439,,Vésines,,VESINES,VESINES,82,RHONE-ALPES,1,Ain,46.357624,4.86655,V252,FSNS
1430,1441,,Vieu-d'Izenave,,VIEU-D'IZENAVE,VIEU D IZENAVE,82,RHONE-ALPES,1,Ain,46.08045,5.529876,V325,FTSNF
1260,1442,,Vieu,,VIEU,VIEU,82,RHONE-ALPES,1,Ain,45.898558,5.682274,V000,F
1330,1443,,Villars-les-Dombes,,VILLARS-LES-DOMBES,VILLARS LES DOMBES,82,RHONE-ALPES,1,Ain,46.000805,5.02552,V462,FLRSLSTMPS
1150,1444,,Villebois,,VILLEBOIS,VILLEBOIS,82,RHONE-ALPES,1,Ain,45.84633,5.43296,V412,FLPS
1270,1445,,Villemotier,,VILLEMOTIER,VILLEMOTIER,82,RHONE-ALPES,1,Ain,46.345975,5.320735,V453,FLMTR
1480,1446,,Villeneuve,,VILLENEUVE,VILLENEUVE,82,RHONE-ALPES,1,Ain,46.02069,4.83587,V451,FLNF
1250,1447,,Villereversure,,VILLEREVERSURE,VILLEREVERSURE,82,RHONE-ALPES,1,Ain,46.184598,5.383981,V461,FLRFRSR
1200,1448,,Villes,,VILLES,VILLES,82,RHONE-ALPES,1,Ain,46.091333,5.782748,V420,FLS
1320,1449,,Villette-sur-Ain,,VILLETTE-SUR-AIN,VILLETTE SUR AIN,82,RHONE-ALPES,1,Ain,45.988587,5.270344,V432,FLTSRN
1800,1450,,Villieu-Loyes-Mollon,,VILLIEU-LOYES-MOLLON,VILLIEU LOYES MOLLON,82,RHONE-ALPES,1,Ain,45.92037,5.22316,V442,FLLSMLN
1440,1451,,Viriat,,VIRIAT,VIRIAT,82,RHONE-ALPES,1,Ain,46.251431,5.22645,V630,FRT
1510,1452,,Virieu-le-Grand,,VIRIEU-LE-GRAND,VIRIEU LE GRAND,82,RHONE-ALPES,1,Ain,45.84834,5.64921,V642,FRLKRNT
1260,1453,,Virieu-le-Petit,,VIRIEU-LE-PETIT,VIRIEU LE PETIT,82,RHONE-ALPES,1,Ain,45.90823,5.724305,V641,FRLPTT
1300,1454,,Virignin,,VIRIGNIN,VIRIGNIN,82,RHONE-ALPES,1,Ain,45.717878,5.71372,V625,FRNN
1350,1456,,Vongnes,,VONGNES,VONGNES,82,RHONE-ALPES,1,Ain,45.814791,5.72686,V525,FNNS
1540,1457,,Vonnas,,VONNAS,VONNAS,82,RHONE-ALPES,1,Ain,46.219757,4.98988,V520,FNS
2300,2001,,Abbécourt,,ABBECOURT,ABBECOURT,22,PICARDIE,2,Aisne,49.596975,3.179475,A126,APKRT
2800,2002,,Achery,,ACHERY,ACHERY,22,PICARDIE,2,Aisne,49.69297,3.38999,A260,AXR
2200,2003,,Acy,,ACY,ACY,22,PICARDIE,2,Aisne,49.345135,3.41238,A200,AS
2340,2004,,Agnicourt-et-Séchelles,,AGNICOURT-ET-SECHELLES,AGNICOURT ET SECHELLES,22,PICARDIE,2,Aisne,49.716127,3.954487,A252,AKNKRTTSXLS
2190,2005,,Aguilcourt,,AGUILCOURT,AGUILCOURT,22,PICARDIE,2,Aisne,49.406033,3.966903,A242,AKLKRT
2110,2006,,Aisonville-et-Bernoville,,AISONVILLE-ET-BERNOVILLE,AISONVILLE ET BERNOVILLE,22,PICARDIE,2,Aisne,49.936266,3.522232,A251,ASNFLTPRNFL
2820,2007,,Aizelles,,AIZELLES,AIZELLES,22,PICARDIE,2,Aisne,49.488961,3.812214,A242,ASLS
2370,2008,,Aizy-Jouy,,AIZY-JOUY,AIZY JOUY,22,PICARDIE,2,Aisne,49.435849,3.515768,A220,ASJ
2240,2009,,Alaincourt,,ALAINCOURT,ALAINCOURT,22,PICARDIE,2,Aisne,49.764745,3.37474,A452,ALNKRT
2320,2010,,Allemant,,ALLEMANT,ALLEMANT,22,PICARDIE,2,Aisne,49.461096,3.452371,A455,ALMNT
2290,2011,,Ambleny,,AMBLENY,AMBLENY,22,PICARDIE,2,Aisne,49.37754,3.182555,A514,AMPLN
2200,2012,,Ambrief,,AMBRIEF,AMBRIEF,22,PICARDIE,2,Aisne,49.317967,3.402824,A516,AMPRF
2190,2013,,Amifontaine,,AMIFONTAINE,AMIFONTAINE,22,PICARDIE,2,Aisne,49.482058,3.915537,A515,AMFNTN
2700,2014,,Amigny-Rouy,,AMIGNY-ROUY,AMIGNY ROUY,22,PICARDIE,2,Aisne,49.609939,3.305141,A525,AMNR
2600,2015,,Ancienville,,ANCIENVILLE,ANCIENVILLE,22,PICARDIE,2,Aisne,49.219415,3.21461,A525,ANSNFL
2800,2016,,Andelain,,ANDELAIN,ANDELAIN,22,PICARDIE,2,Aisne,49.642725,3.369875,A534,ANTLN
2800,2017,,Anguilcourt-le-Sart,,ANGUILCOURT-LE-SART,ANGUILCOURT LE SART,22,PICARDIE,2,Aisne,49.69049,3.43387,A524,ANKLKRTLSRT
2320,2018,,Anizy-le-Château,,ANIZY-LE-CHATEAU,ANIZY LE CHATEAU,22,PICARDIE,2,Aisne,49.50456,3.452091,A524,ANSLXT
2480,2019,,Annois,,ANNOIS,ANNOIS,22,PICARDIE,2,Aisne,49.717316,3.179422,A520,ANS
2500,2020,,Any-Martin-Rieux,,ANY-MARTIN-RIEUX,ANY MARTIN RIEUX,22,PICARDIE,2,Aisne,49.88047,4.216645,A556,ANMRTNRKS
2360,2021,,Archon,,ARCHON,ARCHON,22,PICARDIE,2,Aisne,49.741206,4.115901,A625,ARXN
2130,2022,,Arcy-Sainte-Restitue,,ARCY-SAINTE-RESTITUE,ARCY STE RESTITUE,22,PICARDIE,2,Aisne,49.251935,3.463545,A622,ARSSNTRSTT
2210,2023,,Armentières-sur-Ourcq,,ARMENTIERES-SUR-OURCQ,ARMENTIERES SUR OURCQ,22,PICARDIE,2,Aisne,49.18237,3.3822,A655,ARMNTRSSRRK
2860,2024,,Arrancy,,ARRANCY,ARRANCY,22,PICARDIE,2,Aisne,49.492155,3.754555,A652,ARNS
2480,2025,,Artemps,,ARTEMPS,ARTEMPS,22,PICARDIE,2,Aisne,49.762657,3.189794,A635,ARTMPS
2330,2026,,Artonges,,ARTONGES,ARTONGES,22,PICARDIE,2,Aisne,48.92885,3.553424,A635,ARTNJS
2270,2027,,Assis-sur-Serre,,ASSIS-SUR-SERRE,ASSIS SUR SERRE,22,PICARDIE,2,Aisne,49.686765,3.55874,A226,ASSSRSR
2840,2028,,Athies-sous-Laon,,ATHIES-SOUS-LAON,ATHIES SOUS LAON,22,PICARDIE,2,Aisne,49.575445,3.67886,A322,A0SSSLN
2490,2029,,Attilly,,ATTILLY,ATTILLY,22,PICARDIE,2,Aisne,49.854813,3.164805,A340,ATL
2420,2030,,Aubencheul-aux-Bois,,AUBENCHEUL-AUX-BOIS,AUBENCHEUL AUX BOIS,22,PICARDIE,2,Aisne,50.028664,3.263432,A152,APNXLKSPS
2500,2031,,Aubenton,,AUBENTON,AUBENTON,22,PICARDIE,2,Aisne,49.83757,4.203685,A153,APNTN
2590,2032,,Aubigny-aux-Kaisnes,,AUBIGNY-AUX-KAISNES,AUBIGNY AUX KAISNES,22,PICARDIE,2,Aisne,49.772509,3.12062,A125,APKNKSKSNS
2820,2033,,Aubigny-en-Laonnois,,AUBIGNY-EN-LAONNOIS,AUBIGNY EN LAONNOIS,22,PICARDIE,2,Aisne,49.497319,3.791119,A125,APNNLNS
2300,2034,,Audignicourt,,AUDIGNICOURT,AUDIGNICOURT,22,PICARDIE,2,Aisne,49.476903,3.13481,A325,ATNKRT
2120,2035,,Audigny,,AUDIGNY,AUDIGNY,22,PICARDIE,2,Aisne,49.869199,3.646521,A325,ATN
2220,2036,,Augy,,AUGY,AUGY,22,PICARDIE,2,Aisne,49.338817,3.514517,A200,AK
2000,2037,,Aulnois-sous-Laon,,AULNOIS-SOUS-LAON,AULNOIS SOUS LAON,22,PICARDIE,2,Aisne,49.615395,3.602186,A452,ALNSSSLN
2360,2038,Les,Autels,LES,AUTELS,LES AUTELS,22,PICARDIE,2,Aisne,49.763603,4.224988,A342,ATLSLS
2250,2039,,Autremencourt,,AUTREMENCOURT,AUTREMENCOURT,22,PICARDIE,2,Aisne,49.7043,3.78676,A365,ATRMNKRT
2580,2040,,Autreppes,,AUTREPPES,AUTREPPES,22,PICARDIE,2,Aisne,49.90411,3.853675,A361,ATRPS
2300,2041,,Autreville,,AUTREVILLE,AUTREVILLE,22,PICARDIE,2,Aisne,49.584964,3.239764,A361,ATRFL
2400,2042,,Azy-sur-Marne,,AZY-SUR-MARNE,AZY SUR MARNE,22,PICARDIE,2,Aisne,49.001585,3.367375,A226,ASSRMRN
2290,2043,,Bagneux,,BAGNEUX,BAGNEUX,22,PICARDIE,2,Aisne,49.457659,3.279223,B252,PNKS
2140,2044,,Bancigny,,BANCIGNY,BANCIGNY,22,PICARDIE,2,Aisne,49.80101,4.034535,B522,PNSN
2000,2046,,Barenton-Bugny,,BARENTON-BUGNY,BARENTON BUGNY,22,PICARDIE,2,Aisne,49.634245,3.650495,B653,PRNTNPN
2000,2047,,Barenton-Cel,,BARENTON-CEL,BARENTON CEL,22,PICARDIE,2,Aisne,49.642093,3.650759,B653,PRNTNSL
2270,2048,,Barenton-sur-Serre,,BARENTON-SUR-SERRE,BARENTON SUR SERRE,22,PICARDIE,2,Aisne,49.67024,3.67934,B653,PRNTNSRSR
2700,2049,,Barisis,,BARISIS,BARISIS,22,PICARDIE,2,Aisne,49.577903,3.327799,B622,PRSS
2170,2050,,Barzy-en-Thiérache,,BARZY-EN-THIERACHE,BARZY EN THIERACHE,22,PICARDIE,2,Aisne,50.042737,3.748256,B625,PRSN0RX
2850,2051,,Barzy-sur-Marne,,BARZY-SUR-MARNE,BARZY SUR MARNE,22,PICARDIE,2,Aisne,49.0879,3.547548,B622,PRSSRMRN
2380,2052,,Bassoles-Aulers,,BASSOLES-AULERS,BASSOLES AULERS,22,PICARDIE,2,Aisne,49.52927,3.377155,B242,PSLSLRS
2330,2053,,Baulne-en-Brie,,BAULNE-EN-BRIE,BAULNE EN BRIE,22,PICARDIE,2,Aisne,48.98812,3.61466,B455,PLNNPR
2220,2054,,Bazoches-sur-Vesles,,BAZOCHES-SUR-VESLES,BAZOCHES SUR VESLES,22,PICARDIE,2,Aisne,49.30733,3.619405,B222,PSXSSRFSLS
2500,2055,,Beaumé,,BEAUME,BEAUME,22,PICARDIE,2,Aisne,49.83818,4.151622,B500,PM
2300,2056,,Beaumont-en-Beine,,BEAUMONT-EN-BEINE,BEAUMONT EN BEINE,22,PICARDIE,2,Aisne,49.691585,3.12984,B553,PMNTNPN
2110,2057,,Beaurevoir,,BEAUREVOIR,BEAUREVOIR,22,PICARDIE,2,Aisne,49.9972,3.30908,B616,PRFR
2160,2058,,Beaurieux,,BEAURIEUX,BEAURIEUX,22,PICARDIE,2,Aisne,49.389389,3.735474,B620,PRKS
2800,2059,,Beautor,,BEAUTOR,BEAUTOR,22,PICARDIE,2,Aisne,49.653703,3.347587,B360,PTR
2590,2060,,Beauvois-en-Vermandois,,BEAUVOIS-EN-VERMANDOIS,BEAUVOIS EN VERMANDOIS,22,PICARDIE,2,Aisne,49.839561,3.104871,B125,PFSNFRMNTS
2110,2061,,Becquigny,,BECQUIGNY,BECQUIGNY,22,PICARDIE,2,Aisne,50.0164,3.469572,B225,PKN
2400,2062,,Belleau,,BELLEAU,BELLEAU,22,PICARDIE,2,Aisne,49.081905,3.291885,B400,PL
2420,2063,,Bellenglise,,BELLENGLISE,BELLENGLISE,22,PICARDIE,2,Aisne,49.922816,3.243272,B452,PLNKLS
2200,2064,,Belleu,,BELLEU,BELLEU,22,PICARDIE,2,Aisne,49.363943,3.337606,B400,PL
2420,2065,,Bellicourt,,BELLICOURT,BELLICOURT,22,PICARDIE,2,Aisne,49.961645,3.231296,B426,PLKRT
2440,2066,,Benay,,BENAY,BENAY,22,PICARDIE,2,Aisne,49.76145,3.305065,B500,PN
2450,2067,,Bergues-sur-Sambre,,BERGUES-SUR-SAMBRE,BERGUES SUR SAMBRE,22,PICARDIE,2,Aisne,50.03368,3.704985,B622,PRKSSRSMPR
2250,2068,,Berlancourt,,BERLANCOURT,BERLANCOURT,22,PICARDIE,2,Aisne,49.778622,3.754998,B645,PRLNKRT
2340,2069,,Berlise,,BERLISE,BERLISE,22,PICARDIE,2,Aisne,49.661697,4.106342,B642,PRLS
2120,2070,,Bernot,,BERNOT,BERNOT,22,PICARDIE,2,Aisne,49.866263,3.494885,B653,PRNT
2290,2071,,Berny-Rivière,,BERNY-RIVIERE,BERNY RIVIERE,22,PICARDIE,2,Aisne,49.410008,3.138697,B656,PRNRFR
2820,2072,,Berrieux,,BERRIEUX,BERRIEUX,22,PICARDIE,2,Aisne,49.4874885,3.8484006,B620,PRKS
2190,2073,,Berry-au-Bac,,BERRY-AU-BAC,BERRY AU BAC,22,PICARDIE,2,Aisne,49.403364,3.9002314,B612,PRPK
2800,2074,,Bertaucourt-Epourdon,,BERTAUCOURT-EPOURDON,BERTAUCOURT EPOURDON,22,PICARDIE,2,Aisne,49.6257865,3.3964789,B632,PRTKRTPRTN
2240,2075,,Berthenicourt,,BERTHENICOURT,BERTHENICOURT,22,PICARDIE,2,Aisne,49.7720917,3.3827444,B635,PR0NKRT
2190,2076,,Bertricourt,,BERTRICOURT,BERTRICOURT,22,PICARDIE,2,Aisne,49.395454,4.0098603,B636,PRTRKRT
2200,2077,,Berzy-le-Sec,,BERZY-LE-SEC,BERZY LE SEC,22,PICARDIE,2,Aisne,49.3333956,3.3126353,B624,PRSLSK
2300,2078,,Besmé,,BESME,BESME,22,PICARDIE,2,Aisne,49.539475,3.1634965,B250,PSM
2500,2079,,Besmont,,BESMONT,BESMONT,22,PICARDIE,2,Aisne,49.8367493,4.1227111,B255,PSMNT
2870,2080,,Besny-et-Loizy,,BESNY-ET-LOIZY,BESNY ET LOIZY,22,PICARDIE,2,Aisne,49.6010459,3.5815485,B253,PSNTLS
2300,2081,,Béthancourt-en-Vaux,,BETHANCOURT-EN-VAUX,BETHANCOURT EN VAUX,22,PICARDIE,2,Aisne,49.6267727,3.145907,B352,P0NKRTNFKS
2210,2082,,Beugneux,,BEUGNEUX,BEUGNEUX,22,PICARDIE,2,Aisne,49.2333842,3.4157546,B252,PNKS
2130,2083,,Beuvardes,,BEUVARDES,BEUVARDES,22,PICARDIE,2,Aisne,49.1391528,3.4878492,B163,PFRTS
2310,2084,,Bézu-le-Guéry,,BEZU-LE-GUERY,BEZU LE GUERY,22,PICARDIE,2,Aisne,49.0072731,3.2247563,B242,PSLKR
2400,2085,,Bézu-Saint-Germain,,BEZU-SAINT-GERMAIN,BEZU ST GERMAIN,22,PICARDIE,2,Aisne,49.1081968,3.4084714,B225,PSSNTKRMN
2300,2086,,Bichancourt,,BICHANCOURT,BICHANCOURT,22,PICARDIE,2,Aisne,49.5794457,3.212918,B252,PXNKRT
2290,2087,,Bieuxy,,BIEUXY,BIEUXY,22,PICARDIE,2,Aisne,49.4467168,3.2621131,B200,PKS
2860,2088,,Bièvres,,BIEVRES,BIEVRES,22,PICARDIE,2,Aisne,49.4930215,3.7135858,B162,PFRS
2200,2089,,Billy-sur-Aisne,,BILLY-SUR-AISNE,BILLY SUR AISNE,22,PICARDIE,2,Aisne,49.3563349,3.3841999,B426,PLSRSN
2210,2090,,Billy-sur-Ourcq,,BILLY-SUR-OURCQ,BILLY SUR OURCQ,22,PICARDIE,2,Aisne,49.2173507,3.3000061,B426,PLSRRK
2160,2091,,Blanzy-lès-Fismes,,BLANZY-LES-FISMES,BLANZY LES FISMES,22,PICARDIE,2,Aisne,49.3377302,3.6731649,B452,PLNSLSFSMS
2300,2093,,Blérancourt,,BLERANCOURT,BLERANCOURT,22,PICARDIE,2,Aisne,49.516268,3.151575,B465,PLRNKRT
2400,2094,,Blesmes,,BLESMES,BLESMES,22,PICARDIE,2,Aisne,49.037505,3.4502552,B425,PLSMS
2110,2095,,Bohain-en-Vermandois,,BOHAIN-EN-VERMANDOIS,BOHAIN EN VERMANDOIS,22,PICARDIE,2,Aisne,49.9870267,3.4539533,B551,PHNNFRMNTS
2270,2096,,Bois-lès-Pargny,,BOIS-LES-PARGNY,BOIS LES PARGNY,22,PICARDIE,2,Aisne,49.7314602,3.6475709,B242,PSLSPRN
2350,2097,,Boncourt,,BONCOURT,BONCOURT,22,PICARDIE,2,Aisne,49.6160269,3.9472138,B526,PNKRT
2400,2098,,Bonneil,,BONNEIL,BONNEIL,22,PICARDIE,2,Aisne,49.0086473,3.3510258,B540,PNL
2400,2099,,Bonnesvalyn,,BONNESVALYN,BONNESVALYN,22,PICARDIE,2,Aisne,49.1209223,3.3175939,B521,PNSFLN
2420,2100,,Bony,,BONY,BONY,22,PICARDIE,2,Aisne,49.9875199,3.222967,B500,PN
2250,2101,,Bosmont-sur-Serre,,BOSMONT-SUR-SERRE,BOSMONT SUR SERRE,22,PICARDIE,2,Aisne,49.7329697,3.857096,B255,PSMNTSRSR
2860,2102,,Bouconville-Vauclair,,BOUCONVILLE-VAUCLAIR,BOUCONVILLE VAUCLAIR,22,PICARDIE,2,Aisne,49.465064,3.7567861,B251,PKNFLFKLR
2450,2103,,Boué,,BOUE,BOUE,22,PICARDIE,2,Aisne,50.0123897,3.6985964,B000,P
2160,2104,,Bouffignereux,,BOUFFIGNEREUX,BOUFFIGNEREUX,22,PICARDIE,2,Aisne,49.3735799,3.8438621,B125,PFNRKS
2400,2105,,Bouresches,,BOURESCHES,BOURESCHES,22,PICARDIE,2,Aisne,49.0625212,3.3085819,B622,PRXS
2160,2106,,Bourg-et-Comin,,BOURG-ET-COMIN,BOURG ET COMIN,22,PICARDIE,2,Aisne,49.3959494,3.6558735,B623,PRKTKMN
2300,2107,,Bourguignon-sous-Coucy,,BOURGUIGNON-SOUS-COUCY,BOURGUIGNON SOUS COUCY,22,PICARDIE,2,Aisne,49.5435912,3.1582991,B622,PRKNNSSKS
2000,2108,,Bourguignon-sous-Montbavin,,BOURGUIGNON-SOUS-MONTBAVIN,BOURGUIGNON SOUS MONTBAVIN,22,PICARDIE,2,Aisne,49.5287029,3.5406237,B622,PRKNNSSMNTPFN
2140,2109,La,Bouteille,LA,BOUTEILLE,LA BOUTEILLE,22,PICARDIE,2,Aisne,49.85931,3.974585,B344,PTLL
2220,2110,,Braine,,BRAINE,BRAINE,22,PICARDIE,2,Aisne,49.3418815,3.5348511,B650,PRN
2320,2111,,Brancourt-en-Laonnois,,BRANCOURT-EN-LAONNOIS,BRANCOURT EN LAONNOIS,22,PICARDIE,2,Aisne,49.5144389,3.4193888,B652,PRNKRTNLNS
2110,2112,,Brancourt-le-Grand,,BRANCOURT-LE-GRAND,BRANCOURT LE GRAND,22,PICARDIE,2,Aisne,49.9759764,3.381426,B652,PRNKRTLKRNT
2400,2114,,Brasles,,BRASLES,BRASLES,22,PICARDIE,2,Aisne,49.0487025,3.4270654,B624,PRSLS
2000,2115,,Braye-en-Laonnois,,BRAYE-EN-LAONNOIS,BRAYE EN LAONNOIS,22,PICARDIE,2,Aisne,49.4411472,3.6070498,B654,PRNLNS
2140,2116,,Braye-en-Thiérache,,BRAYE-EN-THIERACHE,BRAYE EN THIERACHE,22,PICARDIE,2,Aisne,49.7794987,3.956759,B653,PRN0RX
2480,2117,,Bray-Saint-Christophe,,BRAY-SAINT-CHRISTOPHE,BRAY ST CHRISTOPHE,22,PICARDIE,2,Aisne,49.770925,3.1441871,B625,PRSNTXRSTF
2880,2118,,BRAYE SOUS CLAMECY,,BRAYE SOUS CLAMECY,BRAYE SOUS CLAMECY,22,PICARDIE,2,Aisne,49.423681,3.370681,B622,PRSSKLMS
2210,2119,,Brécy,,BRECY,BRECY,22,PICARDIE,2,Aisne,49.1481599,3.4288933,B620,PRS
2220,2120,,Brenelle,,BRENELLE,BRENELLE,22,PICARDIE,2,Aisne,49.3672549,3.5435272,B654,PRNL
2210,2121,,Breny,,BRENY,BRENY,22,PICARDIE,2,Aisne,49.1859525,3.3536613,B650,PRN
2870,2122,,Brie,,BRIE,BRIE,22,PICARDIE,2,Aisne,49.6009848,3.482365,B600,PR
2240,2123,,Brissay-Choigny,,BRISSAY-CHOIGNY,BRISSAY CHOIGNY,22,PICARDIE,2,Aisne,49.7241428,3.3765029,B622,PRSXN
2240,2124,,Brissy-Hamégicourt,,BRISSY-HAMEGICOURT,BRISSY HAMEGICOURT,22,PICARDIE,2,Aisne,49.7429314,3.379885,B625,PRSMJKRT
2810,2125,,Brumetz,,BRUMETZ,BRUMETZ,22,PICARDIE,2,Aisne,49.1023752,3.1602334,B653,PRMTS
2360,2126,,Brunehamel,,BRUNEHAMEL,BRUNEHAMEL,22,PICARDIE,2,Aisne,49.7692988,4.1820742,B655,PRNHML
2130,2127,,Bruyères-sur-Fère,,BRUYERES-SUR-FERE,BRUYERES SUR FERE,22,PICARDIE,2,Aisne,49.1891536,3.4419797,B662,PRRSSRFR
2860,2128,,Bruyères-et-Montbérault,,BRUYERES-ET-MONTBERAULT,BRUYERES ET MONTBERAULT,22,PICARDIE,2,Aisne,49.524777,3.6639675,B662,PRRSTMNTPRLT
2220,2129,,Bruys,,BRUYS,BRUYS,22,PICARDIE,2,Aisne,49.270191,3.5636194,B620,PRS
2500,2130,,Bucilly,,BUCILLY,BUCILLY,22,PICARDIE,2,Aisne,49.8772646,4.093885,B240,PSL
2880,2131,,Bucy-le-Long,,BUCY-LE-LONG,BUCY LE LONG,22,PICARDIE,2,Aisne,49.3903459,3.3939405,B244,PSLLNK
2870,2132,,Bucy-lès-Cerny,,BUCY-LES-CERNY,BUCY LES CERNY,22,PICARDIE,2,Aisne,49.582601,3.5163377,B242,PSLSSRN
2350,2133,,Bucy-lès-Pierrepont,,BUCY-LES-PIERREPONT,BUCY LES PIERREPONT,22,PICARDIE,2,Aisne,49.6468754,3.9010716,B242,PSLSPRPNT
2500,2134,,Buire,,BUIRE,BUIRE,22,PICARDIE,2,Aisne,49.9033996,4.0564388,B600,PR
2620,2135,,Buironfosse,,BUIRONFOSSE,BUIRONFOSSE,22,PICARDIE,2,Aisne,49.9653088,3.8494562,B651,PRNFS
2140,2136,,Burelles,,BURELLES,BURELLES,22,PICARDIE,2,Aisne,49.781901,3.8961307,B642,PRLS
2810,2137,,Bussiares,,BUSSIARES,BUSSIARES,22,PICARDIE,2,Aisne,49.0913552,3.2566061,B262,PSRS
2200,2138,,Buzancy,,BUZANCY,BUZANCY,22,PICARDIE,2,Aisne,49.3132977,3.3491785,B252,PSNS
2300,2139,,Caillouël-Crépigny,,CAILLOUEL-CREPIGNY,CAILLOUEL CREPIGNY,22,PICARDIE,2,Aisne,49.6205916,3.1292534,C442,KLLKRPN
2300,2140,,Camelin,,CAMELIN,CAMELIN,22,PICARDIE,2,Aisne,49.5250331,3.1345496,C545,KMLN
2260,2141,La,Capelle,LA,CAPELLE,LA CAPELLE,22,PICARDIE,2,Aisne,49.974395,3.916631,C144,KPLL
2680,2142,,Castres,,CASTRES,CASTRES,22,PICARDIE,2,Aisne,49.8042108,3.2369701,C236,KSTRS
2420,2143,Le,Catelet,LE,CATELET,LE CATELET,22,PICARDIE,2,Aisne,50.000901,3.243621,C343,KTLTL
2490,2144,,Caulaincourt,,CAULAINCOURT,CAULAINCOURT,22,PICARDIE,2,Aisne,49.8640385,3.1043075,C452,KLNKRT
2300,2145,,Caumont,,CAUMONT,CAUMONT,22,PICARDIE,2,Aisne,49.6314087,3.1787013,C553,KMNT
2330,2146,,Celles-lès-Condé,,CELLES-LES-CONDE,CELLES LES CONDE,22,PICARDIE,2,Aisne,49.013341,3.5675785,C424,SLSLSKNT
2540,2147,La,Celle-sous-Montmirail,LA,CELLE-SOUS-MONTMIRAIL,LA CELLE SOUS MONTMIRAIL,22,PICARDIE,2,Aisne,48.864158,3.466423,C422,SLSSMNTMRLL
2370,2148,,Celles-sur-Aisne,,CELLES-SUR-AISNE,CELLES SUR AISNE,22,PICARDIE,2,Aisne,49.4067732,3.4813234,C426,SLSSRSN
2240,2149,,Cerizy,,CERIZY,CERIZY,22,PICARDIE,2,Aisne,49.7607843,3.3293841,C620,SRS
2860,2150,,Cerny-en-Laonnois,,CERNY-EN-LAONNOIS,CERNY EN LAONNOIS,22,PICARDIE,2,Aisne,49.442522,3.6683366,C655,SRNNLNS
2870,2151,,Cerny-lès-Bucy,,CERNY-LES-BUCY,CERNY LES BUCY,22,PICARDIE,2,Aisne,49.5780984,3.5481736,C654,SRNLSPS
2220,2152,,Cerseuil,,CERSEUIL,CERSEUIL,22,PICARDIE,2,Aisne,49.3229159,3.5219266,C624,SRSL
2320,2153,,Cessières,,CESSIERES,CESSIERES,22,PICARDIE,2,Aisne,49.5588119,3.4954777,C262,SSRS
2200,2154,,Chacrise,,CHACRISE,CHACRISE,22,PICARDIE,2,Aisne,49.3053783,3.4035143,C262,XKRS
2000,2155,,Chaillevois,,CHAILLEVOIS,CHAILLEVOIS,22,PICARDIE,2,Aisne,49.5136837,3.5250769,C412,XLFS
2270,2156,,Chalandry,,CHALANDRY,CHALANDRY,22,PICARDIE,2,Aisne,49.6765066,3.6426065,C453,XLNTR
2000,2157,,Chambry,,CHAMBRY,CHAMBRY,22,PICARDIE,2,Aisne,49.5909637,3.6545557,C516,XMPR
2860,2158,,Chamouille,,CHAMOUILLE,CHAMOUILLE,22,PICARDIE,2,Aisne,49.4737586,3.6645603,C540,XML
2670,2159,,Champs,,CHAMPS,CHAMPS,22,PICARDIE,2,Aisne,49.5406795,3.2537439,C512,XMPS
2340,2160,,Chaourse,,CHAOURSE,CHAOURSE,22,PICARDIE,2,Aisne,49.7044222,3.9986539,C620,XRS
2330,2161,La,Chapelle-Monthodon,LA,CHAPELLE-MONTHODON,LA CHAPELLE MONTHODON,22,PICARDIE,2,Aisne,49.02297,3.63423,C145,XPLMN0TNL
2570,2162,La,Chapelle-sur-Chézy,LA,CHAPELLE-SUR-CHEZY,LA CHAPELLE SUR CHEZY,22,PICARDIE,2,Aisne,48.947335,3.377525,C142,XPLSRXSL
2310,2163,,CHARLY,,CHARLY,CHARLY,22,PICARDIE,2,Aisne,48.9770062,3.2867982,C640,XRL
2850,2164,Le,Charmel,LE,CHARMEL,LE CHARMEL,22,PICARDIE,2,Aisne,49.11346,3.55044,C654,XRMLL
2800,2165,,Charmes,,CHARMES,CHARMES,22,PICARDIE,2,Aisne,49.6547371,3.3775567,C652,XRMS
2400,2166,,Chartèves,,CHARTEVES,CHARTEVES,22,PICARDIE,2,Aisne,49.0748695,3.5053661,C631,XRTFS
2370,2167,,Chassemy,,CHASSEMY,CHASSEMY,22,PICARDIE,2,Aisne,49.3796963,3.5067627,C250,XSM
2400,2168,,Château-Thierry,,CHATEAU-THIERRY,CHATEAU THIERRY,22,PICARDIE,2,Aisne,49.0470361,3.3985276,C336,XT0R
2270,2169,,Châtillon-lès-Sons,,CHATILLON-LES-SONS,CHATILLON LES SONS,22,PICARDIE,2,Aisne,49.7600802,3.6868836,C345,XTLNLSSNS
2240,2170,,Châtillon-sur-Oise,,CHATILLON-SUR-OISE,CHATILLON SUR OISE,22,PICARDIE,2,Aisne,49.7910987,3.4193004,C345,XTLNSRS
2160,2171,,Chaudardes,,CHAUDARDES,CHAUDARDES,22,PICARDIE,2,Aisne,49.3913189,3.7924308,C363,XTRTS
2200,2172,,Chaudun,,CHAUDUN,CHAUDUN,22,PICARDIE,2,Aisne,49.3196317,3.2642364,C350,XTN
2300,2173,,Chauny,,CHAUNY,CHAUNY,22,PICARDIE,2,Aisne,49.6129342,3.2198927,C500,XN
2000,2174,,Chavignon,,CHAVIGNON,CHAVIGNON,22,PICARDIE,2,Aisne,49.4795097,3.5206566,C125,XFNN
2880,2175,,Chavigny,,CHAVIGNY,CHAVIGNY,22,PICARDIE,2,Aisne,49.4256787,3.3050823,C125,XFN
2370,2176,,Chavonne,,CHAVONNE,CHAVONNE,22,PICARDIE,2,Aisne,49.405108,3.5697929,C150,XFN
2860,2177,,Chérêt,,CHERET,CHERET,22,PICARDIE,2,Aisne,49.5149548,3.6836828,C630,XRT
2860,2178,,Chermizy-Ailles,,CHERMIZY-AILLES,CHERMIZY AILLES,22,PICARDIE,2,Aisne,49.4693608,3.7247298,C652,XRMSLS
2220,2179,,Chéry-Chartreuve,,CHERY-CHARTREUVE,CHERY CHARTREUVE,22,PICARDIE,2,Aisne,49.2618781,3.6162579,C626,XRXRTRF
2000,2180,,Chéry-lès-Pouilly,,CHERY-LES-POUILLY,CHERY LES POUILLY,22,PICARDIE,2,Aisne,49.6587953,3.6062332,C642,XRLSPL
2360,2181,,Chéry-lès-Rozoy,,CHERY-LES-ROZOY,CHERY LES ROZOY,22,PICARDIE,2,Aisne,49.7197262,4.0913398,C642,XRLSRS
2250,2182,,Chevennes,,CHEVENNES,CHEVENNES,22,PICARDIE,2,Aisne,49.8146608,3.7319803,C152,XFNS
2000,2183,,Chevregny,,CHEVREGNY,CHEVREGNY,22,PICARDIE,2,Aisne,49.4725423,3.5909582,C162,XFRN
2270,2184,,Chevresis-Monceau,,CHEVRESIS-MONCEAU,CHEVRESIS MONCEAU,22,PICARDIE,2,Aisne,49.7545892,3.5721782,C162,XFRSSMNS
2810,2185,,Chézy-en-Orxois,,CHEZY-EN-ORXOIS,CHEZY EN ORXOIS,22,PICARDIE,2,Aisne,49.1236754,3.1819937,C256,XSNRKSS
2570,2186,,Chézy-sur-Marne,,CHEZY-SUR-MARNE,CHEZY SUR MARNE,22,PICARDIE,2,Aisne,48.9896042,3.3661055,C226,XSSRMRN
2400,2187,,Chierry,,CHIERRY,CHIERRY,22,PICARDIE,2,Aisne,49.0394782,3.4321326,C600,XR
2120,2188,,Chigny,,CHIGNY,CHIGNY,22,PICARDIE,2,Aisne,49.9171043,3.7707624,C250,XN
2350,2189,,Chivres-en-Laonnois,,CHIVRES-EN-LAONNOIS,CHIVRES EN LAONNOIS,22,PICARDIE,2,Aisne,49.6333471,3.8415335,C162,XFRSNLNS
2880,2190,,Chivres-Val,,CHIVRES-VAL,CHIVRES VAL,22,PICARDIE,2,Aisne,49.3967551,3.4357953,C162,XFRSFL
2000,2191,,Chivy-lès-Étouvelles,,CHIVY-LES-ETOUVELLES,CHIVY LES ETOUVELLES,22,PICARDIE,2,Aisne,49.5275898,3.5844763,C142,XFLSTFLS
2210,2192,,Chouy,,CHOUY,CHOUY,22,PICARDIE,2,Aisne,49.2064808,3.2476034,C000,X
2130,2193,,Cierges,,CIERGES,CIERGES,22,PICARDIE,2,Aisne,49.1687613,3.6008904,C622,SRJS
2250,2194,,Cilly,,CILLY,CILLY,22,PICARDIE,2,Aisne,49.737894,3.8320564,C400,SL
2220,2195,,Ciry-Salsogne,,CIRY-SALSOGNE,CIRY SALSOGNE,22,PICARDIE,2,Aisne,49.3626822,3.4631467,C624,SRSLSN
2000,2196,,Clacy-et-Thierret,,CLACY-ET-THIERRET,CLACY ET THIERRET,22,PICARDIE,2,Aisne,49.5490447,3.570866,C423,KLST0RT
2260,2197,,Clairfontaine,,CLAIRFONTAINE,CLAIRFONTAINE,22,PICARDIE,2,Aisne,49.9812663,3.9864298,C461,KLRFNTN
2880,2198,,Clamecy,,CLAMECY,CLAMECY,22,PICARDIE,2,Aisne,49.4284016,3.36148,C452,KLMS
2440,2199,,Clastres,,CLASTRES,CLASTRES,22,PICARDIE,2,Aisne,49.746103,3.2318618,C423,KLSTRS
2340,2200,,Clermont-les-Fermes,,CLERMONT-LES-FERMES,CLERMONT LES FERMES,22,PICARDIE,2,Aisne,49.667087,3.9343868,C465,KLRMNTLSFRMS
2600,2201,,Coeuvres-et-Valsery,,COEUVRES-ET-VALSERY,COEUVRES ET VALSERY,22,PICARDIE,2,Aisne,49.338533,3.156839,C162,KFRSTFLSR
2210,2203,,Coincy,,COINCY,COINCY,22,PICARDIE,2,Aisne,49.161492,3.4218289,C520,KNS
2360,2204,,Coingt,,COINGT,COINGT,22,PICARDIE,2,Aisne,49.7908734,4.0860164,C523,KNKT
2860,2205,,Colligis-Crandelain,,COLLIGIS-CRANDELAIN,COLLIGIS CRANDELAIN,22,PICARDIE,2,Aisne,49.4750871,3.640639,C422,KLJSKRNTLN
2120,2206,,Colonfay,,COLONFAY,COLONFAY,22,PICARDIE,2,Aisne,49.8604868,3.7141907,C451,KLNF
2300,2207,,Commenchon,,COMMENCHON,COMMENCHON,22,PICARDIE,2,Aisne,49.6394699,3.1583036,C552,KMNXN
2160,2208,,Concevreux,,CONCEVREUX,CONCEVREUX,22,PICARDIE,2,Aisne,49.3767793,3.7889578,C521,KNSFRKS
2330,2209,,Condé-en-Brie,,CONDE-EN-BRIE,CONDE EN BRIE,22,PICARDIE,2,Aisne,49.0046881,3.5603982,C535,KNTNPR
2370,2210,,Condé-sur-Aisne,,CONDE-SUR-AISNE,CONDE SUR AISNE,22,PICARDIE,2,Aisne,49.3976035,3.4685009,C532,KNTSRSN
2190,2211,,Condé-sur-Suippe,,CONDE-SUR-SUIPPE,CONDE SUR SUIPPE,22,PICARDIE,2,Aisne,49.4211937,3.9483385,C532,KNTSRSP
2700,2212,,Condren,,CONDREN,CONDREN,22,PICARDIE,2,Aisne,49.6305687,3.2808551,C536,KNTRN
2330,2213,,Connigis,,CONNIGIS,CONNIGIS,22,PICARDIE,2,Aisne,49.0326932,3.5324621,C522,KNJS
2680,2214,,Contescourt,,CONTESCOURT,CONTESCOURT,22,PICARDIE,2,Aisne,49.7928003,3.2315576,C532,KNTSKRT
2820,2215,,Corbeny,,CORBENY,CORBENY,22,PICARDIE,2,Aisne,49.4628397,3.8222456,C615,KRPN
2600,2216,,Corcy,,CORCY,CORCY,22,PICARDIE,2,Aisne,49.2538123,3.2110817,C620,KRS
2380,2217,,Coucy-le-Château-Auffrique,,COUCY-LE-CHATEAU-AUFFRIQUE,COUCY LE CHATEAU AUFFRIQUE,22,PICARDIE,2,Aisne,49.5193326,3.3241101,C242,KSLXTFRK
2840,2218,,Coucy-lès-Eppes,,COUCY-LES-EPPES,COUCY LES EPPES,22,PICARDIE,2,Aisne,49.5526331,3.7692455,C242,KSLSPS
2380,2219,,Coucy-la-Ville,,COUCY-LA-VILLE,COUCY LA VILLE,22,PICARDIE,2,Aisne,49.5330237,3.3290918,C241,KSLFL
2130,2220,,Coulonges-Cohan,,COULONGES-COHAN,COULONGES COHAN,22,PICARDIE,2,Aisne,49.2007509,3.6343814,C452,KLNJSKHN
2310,2221,,Coupru,,COUPRU,COUPRU,22,PICARDIE,2,Aisne,49.0308568,3.2716749,C160,KPR
2800,2222,,Courbes,,COURBES,COURBES,22,PICARDIE,2,Aisne,49.6839998,3.4514746,C612,KRPS
2330,2223,,Courboin,,COURBOIN,COURBOIN,22,PICARDIE,2,Aisne,48.9942031,3.5051677,C615,KRPN
2220,2224,,COURCELLES SUR VESLES,,COURCELLES SUR VESLES,COURCELLES SUR VESLES,22,PICARDIE,2,Aisne,49.3383186,3.5708842,C624,KRSLSSRFSLS
2810,2225,,Courchamps,,COURCHAMPS,COURCHAMPS,22,PICARDIE,2,Aisne,49.1130776,3.2631284,C625,KRXMPS
2200,2226,,Courmelles,,COURMELLES,COURMELLES,22,PICARDIE,2,Aisne,49.3451293,3.3118941,C654,KRMLS
2130,2227,,Courmont,,COURMONT,COURMONT,22,PICARDIE,2,Aisne,49.149313,3.5764543,C655,KRMNT
2850,2228,,Courtemont-Varennes,,COURTEMONT-VARENNES,COURTEMONT VARENNES,22,PICARDIE,2,Aisne,49.0698975,3.5511976,C635,KRTMNTFRNS
2820,2229,,Courtrizy-et-Fussigny,,COURTRIZY-ET-FUSSIGNY,COURTRIZY ET FUSSIGNY,22,PICARDIE,2,Aisne,49.5199827,3.7876216,C636,KRTRSTFSN
2220,2230,,Couvrelles,,COUVRELLES,COUVRELLES,22,PICARDIE,2,Aisne,49.3376822,3.4879574,C164,KFRLS
2270,2231,,Couvron-et-Aumencourt,,COUVRON-ET-AUMENCOURT,COUVRON ET AUMENCOURT,22,PICARDIE,2,Aisne,49.6443102,3.517334,C165,KFRNTMNKRT
2600,2232,,Coyolles,,COYOLLES,COYOLLES,22,PICARDIE,2,Aisne,49.2346104,3.0418459,C420,KLS
2130,2233,,Cramaille,,CRAMAILLE,CRAMAILLE,22,PICARDIE,2,Aisne,49.2296162,3.4557175,C654,KRML
2160,2234,,Craonne,,CRAONNE,CRAONNE,22,PICARDIE,2,Aisne,49.4388235,3.7856802,C650,KRN
2160,2235,,Craonnelle,,CRAONNELLE,CRAONNELLE,22,PICARDIE,2,Aisne,49.4314744,3.7683559,C654,KRNL
2380,2236,,Crécy-au-Mont,,CRECY-AU-MONT,CRECY AU MONT,22,PICARDIE,2,Aisne,49.4866366,3.3221712,C625,KRSMNT
2270,2237,,Crécy-sur-Serre,,CRECY-SUR-SERRE,CRECY SUR SERRE,22,PICARDIE,2,Aisne,49.6982103,3.6218411,C622,KRSSRSR
2870,2238,,Crépy,,CREPY,CREPY,22,PICARDIE,2,Aisne,49.6061222,3.5120965,C610,KRP
2650,2239,,Crézancy,,CREZANCY,CREZANCY,22,PICARDIE,2,Aisne,49.0474781,3.510279,C625,KRSNS
2110,2240,,Croix-Fonsommes,,CROIX-FONSOMMES,CROIX FONSOMMES,22,PICARDIE,2,Aisne,49.9190506,3.401891,C621,KRKSFNSMS
2210,2241,La,Croix-sur-Ourcq,LA,CROIX-SUR-OURCQ,LA CROIX SUR OURCQ,22,PICARDIE,2,Aisne,49.16829,3.35369,C626,KRKSSRRKL
2310,2242,,Crouttes-sur-Marne,,CROUTTES-SUR-MARNE,CROUTTES SUR MARNE,22,PICARDIE,2,Aisne,48.9794442,3.2401484,C632,KRTSSRMRN
2880,2243,,Crouy,,CROUY,CROUY,22,PICARDIE,2,Aisne,49.4030629,3.3610195,C600,KR
2120,2244,,Crupilly,,CRUPILLY,CRUPILLY,22,PICARDIE,2,Aisne,49.9254399,3.7549074,C614,KRPL
2880,2245,,Cuffies,,CUFFIES,CUFFIES,22,PICARDIE,2,Aisne,49.4070239,3.3178253,C120,KFS
2480,2246,,Cugny,,CUGNY,CUGNY,22,PICARDIE,2,Aisne,49.7076238,3.1560746,C250,KN
2350,2248,,Cuirieux,,CUIRIEUX,CUIRIEUX,22,PICARDIE,2,Aisne,49.680832,3.8151059,C620,KRKS
2220,2249,,Cuiry-Housse,,CUIRY-HOUSSE,CUIRY HOUSSE,22,PICARDIE,2,Aisne,49.2944713,3.4923239,C620,KRS
2160,2250,,Cuiry-lès-Chaudardes,,CUIRY-LES-CHAUDARDES,CUIRY LES CHAUDARDES,22,PICARDIE,2,Aisne,49.3861548,3.7706544,C642,KRLSXTRTS
2360,2251,,Cuiry-lès-Iviers,,CUIRY-LES-IVIERS,CUIRY LES IVIERS,22,PICARDIE,2,Aisne,49.762133,4.106781,C642,KRLSFRS
2160,2252,,Cuissy-et-Geny,,CUISSY-ET-GENY,CUISSY ET GENY,22,PICARDIE,2,Aisne,49.41035,3.701745,C232,KSTJN
2200,2253,,Cuisy-en-Almont,,CUISY-EN-ALMONT,CUISY EN ALMONT,22,PICARDIE,2,Aisne,49.416019,3.242613,C254,KSNLMNT
2600,2254,,Cutry,,CUTRY,CUTRY,22,PICARDIE,2,Aisne,49.347177,3.177069,C360,KTR
2220,2255,,Cys-la-Commune,,CYS-LA-COMMUNE,CYS LA COMMUNE,22,PICARDIE,2,Aisne,49.392815,3.57135,C242,SSLKMN
2140,2256,,Dagny-Lambercy,,DAGNY-LAMBERCY,DAGNY LAMBERCY,22,PICARDIE,2,Aisne,49.771156,4.041881,D254,TNLMPRS
2680,2257,,Dallon,,DALLON,DALLON,22,PICARDIE,2,Aisne,49.82455,3.247445,D450,TLN
2470,2258,,Dammard,,DAMMARD,DAMMARD,22,PICARDIE,2,Aisne,49.14537,3.19748,D563,TMRT
2600,2259,,Dampleux,,DAMPLEUX,DAMPLEUX,22,PICARDIE,2,Aisne,49.24398,3.153174,D514,TMPLKS
2800,2260,,Danizy,,DANIZY,DANIZY,22,PICARDIE,2,Aisne,49.66662,3.391226,D520,TNS
2270,2261,,Dercy,,DERCY,DERCY,22,PICARDIE,2,Aisne,49.702583,3.686629,D620,TRS
2700,2262,,Deuillet,,DEUILLET,DEUILLET,22,PICARDIE,2,Aisne,49.63183,3.36175,D430,TLT
2220,2263,,Dhuizel,,DHUIZEL,DHUIZEL,22,PICARDIE,2,Aisne,49.365395,3.61774,D240,TSL
2340,2264,,Dizy-le-Gros,,DIZY-LE-GROS,DIZY LE GROS,22,PICARDIE,2,Aisne,49.627995,4.02249,D242,TSLKRS
2360,2265,,Dohis,,DOHIS,DOHIS,22,PICARDIE,2,Aisne,49.762368,4.133534,D200,THS
2360,2266,,Dolignon,,DOLIGNON,DOLIGNON,22,PICARDIE,2,Aisne,49.731155,4.083055,D425,TLNN
2600,2267,,Dommiers,,DOMMIERS,DOMMIERS,22,PICARDIE,2,Aisne,49.328742,3.21514,D562,TMRS
2310,2268,,Domptin,,DOMPTIN,DOMPTIN,22,PICARDIE,2,Aisne,49.016144,3.27828,D513,TMPTN
2450,2269,,Dorengt,,DORENGT,DORENGT,22,PICARDIE,2,Aisne,49.9747727,3.6791601,D652,TRNKT
2590,2270,,Douchy,,DOUCHY,DOUCHY,22,PICARDIE,2,Aisne,49.796215,3.13493,D200,TX
2130,2271,,Dravegny,,DRAVEGNY,DRAVEGNY,22,PICARDIE,2,Aisne,49.22903,3.638475,D612,TRFN
2210,2272,,Droizy,,DROIZY,DROIZY,22,PICARDIE,2,Aisne,49.277566,3.392958,D620,TRS
2480,2273,,Dury,,DURY,DURY,22,PICARDIE,2,Aisne,49.75056,3.131565,D600,TR
2350,2274,,Ébouleau,,EBOULEAU,EBOULEAU,22,PICARDIE,2,Aisne,49.673014,3.874775,E140,APL
2500,2275,,Effry,,EFFRY,EFFRY,22,PICARDIE,2,Aisne,49.92606,3.983085,E160,AFR
2260,2276,,Englancourt,,ENGLANCOURT,ENGLANCOURT,22,PICARDIE,2,Aisne,49.915692,3.801946,E524,ANKLNKRT
2290,2277,,Épagny,,EPAGNY,EPAGNY,22,PICARDIE,2,Aisne,49.461395,3.240545,E125,APN
2500,2278,,Éparcy,,EPARCY,EPARCY,22,PICARDIE,2,Aisne,49.87538,4.06309,E162,APRS
2400,2279,,Épaux-Bézu,,EPAUX-BEZU,EPAUX BEZU,22,PICARDIE,2,Aisne,49.108285,3.347935,E121,APKSPS
2400,2280,,Épieds,,EPIEDS,EPIEDS,22,PICARDIE,2,Aisne,49.105935,3.44394,E132,APTS
2540,2281,L',Épine-aux-Bois,L',EPINE-AUX-BOIS,L EPINE AUX BOIS,22,PICARDIE,2,Aisne,48.885459,3.447143,E152,APNKSPSL
2840,2282,,Eppes,,EPPES,EPPES,22,PICARDIE,2,Aisne,49.557369,3.73638,E120,APS
2250,2283,,Erlon,,ERLON,ERLON,22,PICARDIE,2,Aisne,49.729202,3.714591,E645,ARLN
2260,2284,,Erloy,,ERLOY,ERLOY,22,PICARDIE,2,Aisne,49.91104,3.82853,E640,ARL
2170,2286,,Esquéhéries,,ESQUEHERIES,ESQUEHERIES,22,PICARDIE,2,Aisne,49.98482,3.74343,E262,ASKHRS
2690,2287,,Essigny-le-Grand,,ESSIGNY-LE-GRAND,ESSIGNY LE GRAND,22,PICARDIE,2,Aisne,49.777524,3.277979,E225,ASNLKRNT
2100,2288,,Essigny-le-Petit,,ESSIGNY-LE-PETIT,ESSIGNY LE PETIT,22,PICARDIE,2,Aisne,49.8993,3.366415,E225,ASNLPTT
2570,2289,,Essises,,ESSISES,ESSISES,22,PICARDIE,2,Aisne,48.96158,3.419935,E222,ASSS
2400,2290,,Essômes-sur-Marne,,ESSOMES-SUR-MARNE,ESSOMES SUR MARNE,22,PICARDIE,2,Aisne,49.029515,3.375035,E252,ASMSSRMRN
2420,2291,,Estrées,,ESTREES,ESTREES,22,PICARDIE,2,Aisne,49.971769,3.295756,E236,ASTRS
2400,2292,,Étampes-sur-Marne,,ETAMPES-SUR-MARNE,ETAMPES SUR MARNE,22,PICARDIE,2,Aisne,49.034395,3.42048,E351,ATMPSSRMRN
2110,2293,,Étaves-et-Bocquiaux,,ETAVES-ET-BOCQUIAUX,ETAVES ET BOCQUIAUX,22,PICARDIE,2,Aisne,49.939555,3.4563,E312,ATFSTPKKS
2000,2294,,Étouvelles,,ETOUVELLES,ETOUVELLES,22,PICARDIE,2,Aisne,49.520945,3.580165,E314,ATFLS
2580,2295,,Étréaupont,,ETREAUPONT,ETREAUPONT,22,PICARDIE,2,Aisne,49.902532,3.914231,E361,ATRPNT
2590,2296,,Étreillers,,ETREILLERS,ETREILLERS,22,PICARDIE,2,Aisne,49.82938,3.169749,E364,ATRLRS
2400,2297,,Étrépilly,,ETREPILLY,ETREPILLY,22,PICARDIE,2,Aisne,49.085095,3.339179,E361,ATRPL
2510,2298,,Étreux,,ETREUX,ETREUX,22,PICARDIE,2,Aisne,49.995532,3.657125,E362,ATRKS
2190,2299,,Évergnicourt,,EVERGNICOURT,EVERGNICOURT,22,PICARDIE,2,Aisne,49.442285,4.03771,E162,AFRNKRT
2320,2301,,Faucoucourt,,FAUCOUCOURT,FAUCOUCOURT,22,PICARDIE,2,Aisne,49.534222,3.46523,F226,FKKRT
2600,2302,,Faverolles,,FAVEROLLES,FAVEROLLES,22,PICARDIE,2,Aisne,49.22281,3.174305,F164,FFRLS
2100,2303,,Fayet,,FAYET,FAYET,22,PICARDIE,2,Aisne,49.868095,3.250755,F300,FT
2800,2304,La,Fère,LA,FERE,LA FERE,22,PICARDIE,2,Aisne,49.663745,3.36282,F640,FRL
2130,2305,,Fère-en-Tardenois,,FERE-EN-TARDENOIS,FERE EN TARDENOIS,22,PICARDIE,2,Aisne,49.200805,3.513285,F653,FRNTRTNS
2270,2306,La,Ferté-Chevresis,LA,FERTE-CHEVRESIS,LA FERTE CHEVRESIS,22,PICARDIE,2,Aisne,49.735174,3.562094,F632,FRTXFRSSL
2460,2307,La,Ferté-Milon,LA,FERTE-MILON,LA FERTE MILON,22,PICARDIE,2,Aisne,49.181166,3.124121,F635,FRTMLNL
2450,2308,,Fesmy-le-Sart,,FESMY-LE-SART,FESMY LE SART,22,PICARDIE,2,Aisne,50.04095,3.67781,F254,FSMLSRT
2840,2309,,Festieux,,FESTIEUX,FESTIEUX,22,PICARDIE,2,Aisne,49.522175,3.75442,F232,FSTKS
2110,2310,,Fieulaine,,FIEULAINE,FIEULAINE,22,PICARDIE,2,Aisne,49.899715,3.447405,F450,FLN
2000,2311,,Filain,,FILAIN,FILAIN,22,PICARDIE,2,Aisne,49.458878,3.555763,F450,FLN
2260,2312,La,Flamengrie,LA,FLAMENGRIE,LA FLAMENGRIE,22,PICARDIE,2,Aisne,50.004311,3.920264,F455,FLMNKRL
2120,2313,,Flavigny-le-Grand-et-Beaurain,,FLAVIGNY-LE-GRAND-ET-BEAURAIN,FLAVIGNY LE GRAND ET BEAURAIN,22,PICARDIE,2,Aisne,49.8939,3.66625,F412,FLFNLKRNTTPRN
2520,2315,,Flavy-le-Martel,,FLAVY-LE-MARTEL,FLAVY LE MARTEL,22,PICARDIE,2,Aisne,49.71275,3.18998,F414,FLFLMRTL
2600,2316,,Fleury,,FLEURY,FLEURY,22,PICARDIE,2,Aisne,49.259924,3.154456,F460,FLR
2590,2317,,Fluquières,,FLUQUIERES,FLUQUIERES,22,PICARDIE,2,Aisne,49.802765,3.15342,F426,FLKRS
2670,2318,,Folembray,,FOLEMBRAY,FOLEMBRAY,22,PICARDIE,2,Aisne,49.54479,3.28976,F451,FLMPR
2110,2319,,Fonsommes,,FONSOMMES,FONSOMMES,22,PICARDIE,2,Aisne,49.901989,3.398881,F525,FNSMS
2680,2320,,Fontaine-lès-Clercs,,FONTAINE-LES-CLERCS,FONTAINE LES CLERCS,22,PICARDIE,2,Aisne,49.804545,3.22322,F535,FNTNLSKLRKS
2140,2321,,Fontaine-lès-Vervins,,FONTAINE-LES-VERVINS,FONTAINE LES VERVINS,22,PICARDIE,2,Aisne,49.853608,3.901094,F535,FNTNLSFRFNS
2110,2322,,Fontaine-Notre-Dame,,FONTAINE-NOTRE-DAME,FONTAINE NOTRE DAME,22,PICARDIE,2,Aisne,49.883383,3.429098,F535,FNTNNTRTM
2110,2323,,Fontaine-Uterte,,FONTAINE-UTERTE,FONTAINE UTERTE,22,PICARDIE,2,Aisne,49.920239,3.371593,F535,FNTNTRT
2170,2324,,Fontenelle,,FONTENELLE,FONTENELLE,22,PICARDIE,2,Aisne,50.029656,3.864156,F535,FNTNL
2540,2325,,Fontenelle-en-Brie,,FONTENELLE-EN-BRIE,FONTENELLE EN BRIE,22,PICARDIE,2,Aisne,48.91807,3.476995,F535,FNTNLNPR
2290,2326,,Fontenoy,,FONTENOY,FONTENOY,22,PICARDIE,2,Aisne,49.40856,3.20596,F535,FNTN
2590,2327,,Foreste,,FORESTE,FORESTE,22,PICARDIE,2,Aisne,49.807276,3.09934,F623,FRST
2650,2328,,Fossoy,,FOSSOY,FOSSOY,22,PICARDIE,2,Aisne,49.047346,3.481848,F200,FS
2870,2329,,Fourdrain,,FOURDRAIN,FOURDRAIN,22,PICARDIE,2,Aisne,49.611554,3.471547,F636,FRTRN
2760,2330,,Francilly-Selency,,FRANCILLY-SELENCY,FRANCILLY SELENCY,22,PICARDIE,2,Aisne,49.85552,3.22519,F652,FRNSLSLNS
2140,2331,,Franqueville,,FRANQUEVILLE,FRANQUEVILLE,22,PICARDIE,2,Aisne,49.809055,3.809744,F652,FRNKFL
2130,2332,,Fresnes-en-Tardenois,,FRESNES-EN-TARDENOIS,FRESNES EN TARDENOIS,22,PICARDIE,2,Aisne,49.14693,3.55718,F625,FRSNSNTRTNS
2380,2333,,Fresnes,,FRESNES,FRESNES,22,PICARDIE,2,Aisne,49.554179,3.3708,F625,FRSNS
2230,2334,,Fresnoy-le-Grand,,FRESNOY-LE-GRAND,FRESNOY LE GRAND,22,PICARDIE,2,Aisne,49.955551,3.41728,F625,FRSNLKRNT
2800,2335,,Fressancourt,,FRESSANCOURT,FRESSANCOURT,22,PICARDIE,2,Aisne,49.631552,3.427516,F625,FRSNKRT
2700,2336,,Frières-Faillouël,,FRIERES-FAILLOUEL,FRIERES FAILLOUEL,22,PICARDIE,2,Aisne,49.687064,3.244286,F662,FRRSFLL
2260,2337,,Froidestrées,,FROIDESTREES,FROIDESTREES,22,PICARDIE,2,Aisne,49.940235,3.904121,F632,FRTSTRS
2270,2338,,Froidmont-Cohartille,,FROIDMONT-COHARTILLE,FROIDMONT COHARTILLE,22,PICARDIE,2,Aisne,49.688295,3.709292,F635,FRTMNTKHRTL
2810,2339,,Gandelu,,GANDELU,GANDELU,22,PICARDIE,2,Aisne,49.09445,3.184375,G534,KNTL
2430,2340,,Gauchy,,GAUCHY,GAUCHY,22,PICARDIE,2,Aisne,49.823231,3.28454,G200,KX
2140,2341,,Gercy,,GERCY,GERCY,22,PICARDIE,2,Aisne,49.814985,3.86468,G620,KRS
2260,2342,,Gergny,,GERGNY,GERGNY,22,PICARDIE,2,Aisne,49.912895,3.93232,G625,KRN
2590,2343,,Germaine,,GERMAINE,GERMAINE,22,PICARDIE,2,Aisne,49.811785,3.114625,G655,KRMN
2160,2344,,Gernicourt,,GERNICOURT,GERNICOURT,22,PICARDIE,2,Aisne,49.400155,3.87442,G652,KRNKRT
2440,2345,,Gibercourt,,GIBERCOURT,GIBERCOURT,22,PICARDIE,2,Aisne,49.7373,3.281821,G162,KPRKRT
2350,2346,,Gizy,,GIZY,GIZY,22,PICARDIE,2,Aisne,49.59932,3.77388,G200,JS
2400,2347,,Gland,,GLAND,GLAND,22,PICARDIE,2,Aisne,49.047665,3.46296,G453,KLNT
2160,2348,,Glennes,,GLENNES,GLENNES,22,PICARDIE,2,Aisne,49.35811,3.710765,G452,KLNS
2820,2349,,Goudelancourt-lès-Berrieux,,GOUDELANCOURT-LES-BERRIEUX,GOUDELANCOURT LES BERRIEUX,22,PICARDIE,2,Aisne,49.497408,3.845666,G345,KTLNKRTLSPRKS
2350,2350,,Goudelancourt-lès-Pierrepont,,GOUDELANCOURT-LES-PIERREPONT,GOUDELANCOURT LES PIERREPONT,22,PICARDIE,2,Aisne,49.66905,3.85266,G345,KTLNKRTLSPRPNT
2130,2351,,Goussancourt,,GOUSSANCOURT,GOUSSANCOURT,22,PICARDIE,2,Aisne,49.168838,3.671189,G252,KSNKRT
2420,2352,,Gouy,,GOUY,GOUY,22,PICARDIE,2,Aisne,50.002411,3.253881,G000,K
2350,2353,,Grandlup-et-Fay,,GRANDLUP-ET-FAY,GRANDLUP ET FAY,22,PICARDIE,2,Aisne,49.657925,3.736565,G653,KRNTLPTF
2360,2354,,Grandrieux,,GRANDRIEUX,GRANDRIEUX,22,PICARDIE,2,Aisne,49.730155,4.18535,G653,KRNTRKS
2100,2355,,Gricourt,,GRICOURT,GRICOURT,22,PICARDIE,2,Aisne,49.88779,3.24582,G626,KRKRT
2210,2356,,Grisolles,,GRISOLLES,GRISOLLES,22,PICARDIE,2,Aisne,49.14028,3.35862,G624,KRSLS
2140,2357,,Gronard,,GRONARD,GRONARD,22,PICARDIE,2,Aisne,49.79289,3.882595,G656,KRNRT
2110,2358,,Grougis,,GROUGIS,GROUGIS,22,PICARDIE,2,Aisne,49.943115,3.52285,G622,KRJS
2680,2359,,Grugies,,GRUGIES,GRUGIES,22,PICARDIE,2,Aisne,49.813699,3.264332,G622,KRJS
2190,2360,,Guignicourt,,GUIGNICOURT,GUIGNICOURT,22,PICARDIE,2,Aisne,49.434359,3.96696,G252,KNKRT
2120,2361,,Guise,,GUISE,GUISE,22,PICARDIE,2,Aisne,49.8997284,3.6280166,G200,KS
2300,2362,,Guivry,,GUIVRY,GUIVRY,22,PICARDIE,2,Aisne,49.646113,3.119245,G160,KFR
2300,2363,,Guny,,GUNY,GUNY,22,PICARDIE,2,Aisne,49.520655,3.269465,G500,KN
2160,2364,,Guyencourt,,GUYENCOURT,GUYENCOURT,22,PICARDIE,2,Aisne,49.357162,3.838266,G526,KNKRT
2510,2366,,Hannapes,,HANNAPES,HANNAPES,22,PICARDIE,2,Aisne,49.973155,3.62494,H512,HNPS
2480,2367,,Happencourt,,HAPPENCOURT,HAPPENCOURT,22,PICARDIE,2,Aisne,49.77768,3.189503,H152,HPNKRT
2600,2368,,Haramont,,HARAMONT,HARAMONT,22,PICARDIE,2,Aisne,49.277354,3.062833,H655,HRMNT
2140,2369,,Harcigny,,HARCIGNY,HARCIGNY,22,PICARDIE,2,Aisne,49.79626,3.97477,H622,HRSN
2420,2370,,Hargicourt,,HARGICOURT,HARGICOURT,22,PICARDIE,2,Aisne,49.962363,3.178672,H622,HRJKRT
2100,2371,,Harly,,HARLY,HARLY,22,PICARDIE,2,Aisne,49.845534,3.325596,H640,HRL
2210,2372,,Hartennes-et-Taux,,HARTENNES-ET-TAUX,HARTENNES ET TAUX,22,PICARDIE,2,Aisne,49.270494,3.352895,H635,HRTNSTTKS
2140,2373,,Hary,,HARY,HARY,22,PICARDIE,2,Aisne,49.788991,3.932545,H600,HR
2420,2374,,Lehaucourt,,LEHAUCOURT,LEHAUCOURT,22,PICARDIE,2,Aisne,49.91987,3.280298,L263,LHKRT
2810,2375,,Hautevesnes,,HAUTEVESNES,HAUTEVESNES,22,PICARDIE,2,Aisne,49.10931,3.232095,H312,HTFSNS
2120,2376,,Hauteville,,HAUTEVILLE,HAUTEVILLE,22,PICARDIE,2,Aisne,49.878965,3.524252,H314,HTFL
2140,2377,,Haution,,HAUTION,HAUTION,22,PICARDIE,2,Aisne,49.866453,3.839556,H350,HXN
2500,2378,La,Hérie,LA,HERIE,LA HERIE,22,PICARDIE,2,Aisne,49.88748,4.05189,H640,HRL
2120,2379,Le,Hérie-la-Viéville,LE,HERIE-LA-VIEVILLE,LE HERIE LA VIEVILLE,22,PICARDIE,2,Aisne,49.824315,3.64278,H641,HRLFFLL
2440,2380,,Hinacourt,,HINACOURT,HINACOURT,22,PICARDIE,2,Aisne,49.74369,3.29334,H526,HNKRT
2500,2381,,Hirson,,HIRSON,HIRSON,22,PICARDIE,2,Aisne,49.921075,4.08375,H625,HRSN
2760,2382,,Holnon,,HOLNON,HOLNON,22,PICARDIE,2,Aisne,49.8577,3.21447,H455,HLNN
2720,2383,,Homblières,,HOMBLIERES,HOMBLIERES,22,PICARDIE,2,Aisne,49.855453,3.367183,H514,HMPLRS
2140,2384,,Houry,,HOURY,HOURY,22,PICARDIE,2,Aisne,49.783175,3.849815,H600,HR
2250,2385,,Housset,,HOUSSET,HOUSSET,22,PICARDIE,2,Aisne,49.794481,3.708253,H230,HST
2510,2386,,Iron,,IRON,IRON,22,PICARDIE,2,Aisne,49.956312,3.660291,I650,ARN
2240,2387,,Itancourt,,ITANCOURT,ITANCOURT,22,PICARDIE,2,Aisne,49.806844,3.343288,I352,ATNKRT
2360,2388,,Iviers,,IVIERS,IVIERS,22,PICARDIE,2,Aisne,49.783498,4.143563,I162,AFRS
2850,2389,,Jaulgonne,,JAULGONNE,JAULGONNE,22,PICARDIE,2,Aisne,49.091491,3.537002,J425,JLKN
2490,2390,,Jeancourt,,JEANCOURT,JEANCOURT,22,PICARDIE,2,Aisne,49.926373,3.149738,J526,JNKRT
2140,2391,,Jeantes,,JEANTES,JEANTES,22,PICARDIE,2,Aisne,49.804125,4.05505,J532,JNTS
2420,2392,,Joncourt,,JONCOURT,JONCOURT,22,PICARDIE,2,Aisne,49.954175,3.297006,J526,JNKRT
2220,2393,,Jouaignes,,JOUAIGNES,JOUAIGNES,22,PICARDIE,2,Aisne,49.300068,3.537182,J252,JNS
2380,2395,,Jumencourt,,JUMENCOURT,JUMENCOURT,22,PICARDIE,2,Aisne,49.508347,3.354458,J552,JMNKRT
2160,2396,,Jumigny,,JUMIGNY,JUMIGNY,22,PICARDIE,2,Aisne,49.410721,3.717,J525,JMN
2480,2397,,Jussy,,JUSSY,JUSSY,22,PICARDIE,2,Aisne,49.72299,3.233335,J200,JS
2880,2398,,Juvigny,,JUVIGNY,JUVIGNY,22,PICARDIE,2,Aisne,49.447922,3.318699,J125,JFN
2190,2399,,Juvincourt-et-Damary,,JUVINCOURT-ET-DAMARY,JUVINCOURT ET DAMARY,22,PICARDIE,2,Aisne,49.445135,3.8888,J152,JFNKRTTTMR
2880,2400,,Laffaux,,LAFFAUX,LAFFAUX,22,PICARDIE,2,Aisne,49.44987,3.426315,L120,LFKS
2140,2401,,Laigny,,LAIGNY,LAIGNY,22,PICARDIE,2,Aisne,49.858566,3.865412,L250,LN
2590,2402,,Lanchy,,LANCHY,LANCHY,22,PICARDIE,2,Aisne,49.826406,3.073597,L520,LNX
2120,2403,,Landifay-et-Bertaignemont,,LANDIFAY-ET-BERTAIGNEMONT,LANDIFAY ET BERTAIGNEMONT,22,PICARDIE,2,Aisne,49.81619,3.606275,L531,LNTFTPRTNMNT
2140,2404,,Landouzy-la-Cour,,LANDOUZY-LA-COUR,LANDOUZY LA COUR,22,PICARDIE,2,Aisne,49.84773,3.98535,L532,LNTSLKR
2140,2405,,Landouzy-la-Ville,,LANDOUZY-LA-VILLE,LANDOUZY LA VILLE,22,PICARDIE,2,Aisne,49.86197,4.048765,L532,LNTSLFL
2380,2406,,Landricourt,,LANDRICOURT,LANDRICOURT,22,PICARDIE,2,Aisne,49.508376,3.366693,L536,LNTRKRT
2000,2407,,Laniscourt,,LANISCOURT,LANISCOURT,22,PICARDIE,2,Aisne,49.54885,3.54135,L526,LNSKRT
2000,2408,,Laon,,LAON,LAON,22,PICARDIE,2,Aisne,49.547661,3.59402,L500,LN
2150,2409,,Lappion,,LAPPION,LAPPION,22,PICARDIE,2,Aisne,49.60741,3.961968,L150,LPN
2600,2410,,Largny-sur-Automne,,LARGNY-SUR-AUTOMNE,LARGNY SUR AUTOMNE,22,PICARDIE,2,Aisne,49.26092,3.039725,L625,LRNSRTMN
2210,2411,,Latilly,,LATILLY,LATILLY,22,PICARDIE,2,Aisne,49.15347,3.311665,L340,LTL
2210,2412,,Launoy,,LAUNOY,LAUNOY,22,PICARDIE,2,Aisne,49.263938,3.400404,L500,LN
2860,2413,,Laval-en-Laonnois,,LAVAL-EN-LAONNOIS,LAVAL EN LAONNOIS,22,PICARDIE,2,Aisne,49.501515,3.59574,L145,LFLNLNS
2450,2414,,Lavaqueresse,,LAVAQUERESSE,LAVAQUERESSE,22,PICARDIE,2,Aisne,49.946177,3.703461,L126,LFKRS
2600,2415,,Laversine,,LAVERSINE,LAVERSINE,22,PICARDIE,2,Aisne,49.350895,3.17067,L162,LFRSN
2140,2416,,Lemé,,LEME,LEME,22,PICARDIE,2,Aisne,49.836466,3.764206,L500,LM
2420,2417,,Lempire,,LEMPIRE,LEMPIRE,22,PICARDIE,2,Aisne,49.993486,3.175434,L516,LMPR
2260,2418,,Lerzy,,LERZY,LERZY,22,PICARDIE,2,Aisne,49.943885,3.883849,L620,LRS
2170,2419,,LESCHELLES,,LESCHELLES,LESCHELLES,22,PICARDIE,2,Aisne,49.957878,3.77002,L242,LXLS
2100,2420,,Lesdins,,LESDINS,LESDINS,22,PICARDIE,2,Aisne,49.896457,3.326849,L235,LSTNS
2220,2421,,Lesges,,LESGES,LESGES,22,PICARDIE,2,Aisne,49.30641,3.50891,L220,LSJS
2120,2422,,Lesquielles-Saint-Germain,,LESQUIELLES-SAINT-GERMAIN,LESQUIELLES ST GERMAIN,22,PICARDIE,2,Aisne,49.932086,3.621562,L242,LSKLSSNTKRMN
2380,2423,,Leuilly-sous-Coucy,,LEUILLY-SOUS-COUCY,LEUILLY SOUS COUCY,22,PICARDIE,2,Aisne,49.478307,3.357677,L422,LLSSKS
2880,2424,,Leury,,LEURY,LEURY,22,PICARDIE,2,Aisne,49.43246,3.33603,L600,LR
2500,2425,,Leuze,,LEUZE,LEUZE,22,PICARDIE,2,Aisne,49.85195,4.161635,L200,LS
2420,2426,,Levergies,,LEVERGIES,LEVERGIES,22,PICARDIE,2,Aisne,49.928525,3.311207,L162,LFRJS
2220,2427,,Lhuys,,LHUYS,LHUYS,22,PICARDIE,2,Aisne,49.281462,3.556608,L200,LS
2810,2428,,Licy-Clignon,,LICY-CLIGNON,LICY CLIGNON,22,PICARDIE,2,Aisne,49.09989,3.27422,L224,LSKLNN
2860,2429,,Lierval,,LIERVAL,LIERVAL,22,PICARDIE,2,Aisne,49.485157,3.616427,L614,LRFL
2350,2430,,Liesse-Notre-Dame,,LIESSE-NOTRE-DAME,LIESSE NOTRE DAME,22,PICARDIE,2,Aisne,49.63496,3.82878,L253,LSNTRTM
2700,2431,,Liez,,LIEZ,LIEZ,22,PICARDIE,2,Aisne,49.69148,3.290625,L200,LS
2220,2432,,Limé,,LIME,LIME,22,PICARDIE,2,Aisne,49.32218,3.548595,L500,LM
2340,2433,,Lislet,,LISLET,LISLET,22,PICARDIE,2,Aisne,49.685595,4.02268,L243,LLT
2320,2434,,Lizy,,LIZY,LIZY,22,PICARDIE,2,Aisne,49.512231,3.482318,L200,LS
2500,2435,,Logny-lès-Aubenton,,LOGNY-LES-AUBENTON,LOGNY LES AUBENTON,22,PICARDIE,2,Aisne,49.828924,4.211362,L254,LNLSPNTN
2600,2438,,Longpont,,LONGPONT,LONGPONT,22,PICARDIE,2,Aisne,49.274084,3.221499,L521,LNKPNT
2160,2439,,Longueval-Barbonval,,LONGUEVAL-BARBONVAL,LONGUEVAL BARBONVAL,22,PICARDIE,2,Aisne,49.35882,3.65379,L521,LNKFLPRPNFL
2190,2440,,Lor,,LOR,LOR,22,PICARDIE,2,Aisne,49.53005,4.045905,L600,LR
2600,2441,,Louâtre,,LOUATRE,LOUATRE,22,PICARDIE,2,Aisne,49.256954,3.245593,L360,LTR
2130,2442,,Loupeigne,,LOUPEIGNE,LOUPEIGNE,22,PICARDIE,2,Aisne,49.246256,3.53542,L125,LPN
2400,2443,,Lucy-le-Bocage,,LUCY-LE-BOCAGE,LUCY LE BOCAGE,22,PICARDIE,2,Aisne,49.058753,3.279008,L241,LSLPKJ
2140,2444,,Lugny,,LUGNY,LUGNY,22,PICARDIE,2,Aisne,49.780695,3.808831,L250,LN
2500,2445,,Luzoir,,LUZOIR,LUZOIR,22,PICARDIE,2,Aisne,49.925262,3.962471,L260,LSR
2440,2446,,Ly-Fontaine,,LY-FONTAINE,LY FONTAINE,22,PICARDIE,2,Aisne,49.735145,3.31072,L153,LFNTN
2220,2447,,Maast-et-Violaine,,MAAST-ET-VIOLAINE,MAAST ET VIOLAINE,22,PICARDIE,2,Aisne,49.28383,3.448935,M233,MSTTFLN
2350,2448,,Mâchecourt,,MACHECOURT,MACHECOURT,22,PICARDIE,2,Aisne,49.654125,3.839175,M226,MXKRT
2470,2449,,Macogny,,MACOGNY,MACOGNY,22,PICARDIE,2,Aisne,49.165933,3.228994,M225,MKN
2120,2450,,Macquigny,,MACQUIGNY,MACQUIGNY,22,PICARDIE,2,Aisne,49.883572,3.555095,M225,MKN
2420,2451,,Magny-la-Fosse,,MAGNY-LA-FOSSE,MAGNY LA FOSSE,22,PICARDIE,2,Aisne,49.933008,3.272174,M254,MNLFS
2490,2452,,Maissemy,,MAISSEMY,MAISSEMY,22,PICARDIE,2,Aisne,49.895333,3.186657,M250,MSM
2160,2453,,Maizy,,MAIZY,MAIZY,22,PICARDIE,2,Aisne,49.3754093,3.7353114,M200,MS
2190,2454,La,Malmaison,LA,MALMAISON,LA MALMAISON,22,PICARDIE,2,Aisne,49.515599,3.97941,M452,MLMSNL
2120,2455,,Malzy,,MALZY,MALZY,22,PICARDIE,2,Aisne,49.907241,3.728254,M420,MLS
2300,2456,,Manicamp,,MANICAMP,MANICAMP,22,PICARDIE,2,Aisne,49.567489,3.16833,M525,MNKMP
2350,2457,,Marchais,,MARCHAIS,MARCHAIS,22,PICARDIE,2,Aisne,49.58295,3.818455,M622,MRXS
2540,2458,,Marchais-en-Brie,,MARCHAIS-EN-BRIE,MARCHAIS EN BRIE,22,PICARDIE,2,Aisne,48.88364,3.485824,M622,MRXSNPR
2720,2459,,Marcy,,MARCY,MARCY,22,PICARDIE,2,Aisne,49.851392,3.40596,M620,MRS
2250,2460,,Marcy-sous-Marle,,MARCY-SOUS-MARLE,MARCY SOUS MARLE,22,PICARDIE,2,Aisne,49.738964,3.737039,M622,MRSSSMRL
2300,2461,,Marest-Dampcourt,,MAREST-DAMPCOURT,MAREST DAMPCOURT,22,PICARDIE,2,Aisne,49.602256,3.150579,M623,MRSTTMPKRT
2130,2462,,Mareuil-en-Dôle,,MAREUIL-EN-DOLE,MAREUIL EN DOLE,22,PICARDIE,2,Aisne,49.241344,3.554778,M645,MRLNTL
2140,2463,,Marfontaine,,MARFONTAINE,MARFONTAINE,22,PICARDIE,2,Aisne,49.803586,3.771668,M615,MRFNTN
2880,2464,,Margival,,MARGIVAL,MARGIVAL,22,PICARDIE,2,Aisne,49.43527,3.403055,M621,MRJFL
2810,2465,,Marigny-en-Orxois,,MARIGNY-EN-ORXOIS,MARIGNY EN ORXOIS,22,PICARDIE,2,Aisne,49.059501,3.229011,M625,MRNNRKSS
2470,2466,,Marizy-Sainte-Geneviève,,MARIZY-SAINTE-GENEVIEVE,MARIZY STE GENEVIEVE,22,PICARDIE,2,Aisne,49.182207,3.20225,M622,MRSSNTJNFF
2470,2467,,Marizy-Saint-Mard,,MARIZY-SAINT-MARD,MARIZY ST MARD,22,PICARDIE,2,Aisne,49.18093,3.22236,M622,MRSSNTMRT
2250,2468,,Marle,,MARLE,MARLE,22,PICARDIE,2,Aisne,49.739399,3.7684,M640,MRL
2120,2469,,Marly-Gomont,,MARLY-GOMONT,MARLY GOMONT,22,PICARDIE,2,Aisne,49.90469,3.786071,M642,MRLKMNT
2500,2470,,Martigny,,MARTIGNY,MARTIGNY,22,PICARDIE,2,Aisne,49.857959,4.137671,M632,MRTN
2860,2471,,Martigny-Courpierre,,MARTIGNY-COURPIERRE,MARTIGNY COURPIERRE,22,PICARDIE,2,Aisne,49.489237,3.679419,M632,MRTNKRPR
2820,2472,,Mauregny-en-Haye,,MAUREGNY-EN-HAYE,MAUREGNY EN HAYE,22,PICARDIE,2,Aisne,49.531531,3.796122,M625,MRNN
2800,2473,,Mayot,,MAYOT,MAYOT,22,PICARDIE,2,Aisne,49.705035,3.38472,M300,MT
2700,2474,,Mennessis,,MENNESSIS,MENNESSIS,22,PICARDIE,2,Aisne,49.695457,3.271626,M522,MNSS
2190,2475,,Menneville,,MENNEVILLE,MENNEVILLE,22,PICARDIE,2,Aisne,49.419242,4.006918,M514,MNFL
2630,2476,,Mennevret,,MENNEVRET,MENNEVRET,22,PICARDIE,2,Aisne,49.989313,3.554169,M516,MNFRT
2200,2477,,Mercin-et-Vaux,,MERCIN-ET-VAUX,MERCIN ET VAUX,22,PICARDIE,2,Aisne,49.375445,3.275372,M625,MRSNTFKS
2000,2478,,Merlieux-et-Fouquerolles,,MERLIEUX-ET-FOUQUEROLLES,MERLIEUX ET FOUQUEROLLES,22,PICARDIE,2,Aisne,49.517178,3.504293,M642,MRLKSTFKRLS
2160,2479,,Merval,,MERVAL,MERVAL,22,PICARDIE,2,Aisne,49.349945,3.69709,M614,MRFL
2270,2480,,Mesbrecourt-Richecourt,,MESBRECOURT-RICHECOURT,MESBRECOURT RICHECOURT,22,PICARDIE,2,Aisne,49.703845,3.543475,M216,MSPRKRTRXKRT
2720,2481,,Mesnil-Saint-Laurent,,MESNIL-SAINT-LAURENT,MESNIL ST LAURENT,22,PICARDIE,2,Aisne,49.831303,3.359395,M254,MSNLSNTLRNT
2160,2482,,Meurival,,MEURIVAL,MEURIVAL,22,PICARDIE,2,Aisne,49.358106,3.760966,M614,MRFL
2240,2483,,Mézières-sur-Oise,,MEZIERES-SUR-OISE,MEZIERES SUR OISE,22,PICARDIE,2,Aisne,49.782121,3.398469,M262,MSRSSRS
2650,2484,,Mézy-Moulins,,MEZY-MOULINS,MEZY MOULINS,22,PICARDIE,2,Aisne,49.068634,3.503515,M254,MSMLNS
2200,2485,,Missy-aux-Bois,,MISSY-AUX-BOIS,MISSY AUX BOIS,22,PICARDIE,2,Aisne,49.335978,3.24965,M221,MSKSPS
2350,2486,,Missy-lès-Pierrepont,,MISSY-LES-PIERREPONT,MISSY LES PIERREPONT,22,PICARDIE,2,Aisne,49.632091,3.783841,M242,MSLSPRPNT
2880,2487,,Missy-sur-Aisne,,MISSY-SUR-AISNE,MISSY SUR AISNE,22,PICARDIE,2,Aisne,49.386655,3.43626,M226,MSSRSN
2110,2488,,Molain,,MOLAIN,MOLAIN,22,PICARDIE,2,Aisne,50.029877,3.533184,M450,MLN
2000,2489,,Molinchart,,MOLINCHART,MOLINCHART,22,PICARDIE,2,Aisne,49.561201,3.539505,M452,MLNXRT
2000,2490,,Monampteuil,,MONAMPTEUIL,MONAMPTEUIL,22,PICARDIE,2,Aisne,49.475895,3.57333,M551,MNMPTL
2270,2491,,Monceau-le-Neuf-et-Faucouzy,,MONCEAU-LE-NEUF-ET-FAUCOUZY,MONCEAU LE NEUF ET FAUCOUZY,22,PICARDIE,2,Aisne,49.770794,3.617177,M524,MNSLNFTFKS
2270,2492,,Monceau-lès-Leups,,MONCEAU-LES-LEUPS,MONCEAU LES LEUPS,22,PICARDIE,2,Aisne,49.671357,3.490701,M524,MNSLSLPS
2840,2493,,Monceau-le-Waast,,MONCEAU-LE-WAAST,MONCEAU LE WAAST,22,PICARDIE,2,Aisne,49.620041,3.713618,M524,MNSLST
2120,2494,,Monceau-sur-Oise,,MONCEAU-SUR-OISE,MONCEAU SUR OISE,22,PICARDIE,2,Aisne,49.902106,3.695809,M522,MNSSRS
2500,2495,,Mondrepuis,,MONDREPUIS,MONDREPUIS,22,PICARDIE,2,Aisne,49.96031,4.054351,M536,MNTRPS
2470,2496,,Monnes,,MONNES,MONNES,22,PICARDIE,2,Aisne,49.147509,3.220329,M520,MNS
2000,2497,,Mons-en-Laonnois,,MONS-EN-LAONNOIS,MONS EN LAONNOIS,22,PICARDIE,2,Aisne,49.538025,3.553225,M525,MNSNLNS
2820,2498,,Montaigu,,MONTAIGU,MONTAIGU,22,PICARDIE,2,Aisne,49.535682,3.826713,M532,MNTK
2000,2499,,Montbavin,,MONTBAVIN,MONTBAVIN,22,PICARDIE,2,Aisne,49.52277,3.52753,M531,MNTPFN
2110,2500,,Montbrehain,,MONTBREHAIN,MONTBREHAIN,22,PICARDIE,2,Aisne,49.96564,3.34804,M531,MNTPRHN
2860,2501,,Montchâlons,,MONTCHALONS,MONTCHALONS,22,PICARDIE,2,Aisne,49.514672,3.727952,M532,MNXLNS
2340,2502,,Montcornet,,MONTCORNET,MONTCORNET,22,PICARDIE,2,Aisne,49.694273,4.016437,M532,MNTKRNT
2390,2503,,Mont-d'Origny,,MONT-D'ORIGNY,MONT D ORIGNY,22,PICARDIE,2,Aisne,49.844935,3.50502,M536,MNTTRN
2440,2504,,Montescourt-Lizerolles,,MONTESCOURT-LIZEROLLES,MONTESCOURT LIZEROLLES,22,PICARDIE,2,Aisne,49.741405,3.25341,M532,MNTSKRTLSRLS
2540,2505,,Montfaucon,,MONTFAUCON,MONTFAUCON,22,PICARDIE,2,Aisne,48.957508,3.424244,M531,MNTFKN
2600,2506,,Montgobert,,MONTGOBERT,MONTGOBERT,22,PICARDIE,2,Aisne,49.307722,3.148179,M532,MNTKPRT
2210,2507,,Montgru-Saint-Hilaire,,MONTGRU-SAINT-HILAIRE,MONTGRU ST HILAIRE,22,PICARDIE,2,Aisne,49.18927,3.32806,M532,MNTKRSNTLR
2860,2508,,Monthenault,,MONTHENAULT,MONTHENAULT,22,PICARDIE,2,Aisne,49.48615,3.66676,M535,MN0NLT
2400,2509,,Monthiers,,MONTHIERS,MONTHIERS,22,PICARDIE,2,Aisne,49.102987,3.300912,M536,MN0RS
2330,2510,,Monthurel,,MONTHUREL,MONTHUREL,22,PICARDIE,2,Aisne,49.022735,3.546,M536,MN0RL
2110,2511,,Montigny-en-Arrouaise,,MONTIGNY-EN-ARROUAISE,MONTIGNY EN ARROUAISE,22,PICARDIE,2,Aisne,49.905878,3.475707,M532,MNTNNRS
2810,2512,,Montigny-l'Allier,,MONTIGNY-L'ALLIER,MONTIGNY L ALLIER,22,PICARDIE,2,Aisne,49.111793,3.102674,M532,MNTNLLR
2250,2513,,Montigny-le-Franc,,MONTIGNY-LE-FRANC,MONTIGNY LE FRANC,22,PICARDIE,2,Aisne,49.688641,3.91177,M532,MNTNLFRNK
2290,2514,,Montigny-Lengrain,,MONTIGNY-LENGRAIN,MONTIGNY LENGRAIN,22,PICARDIE,2,Aisne,49.372136,3.097624,M532,MNTNLNKRN
2330,2515,,Montigny-lès-Condé,,MONTIGNY-LES-CONDE,MONTIGNY LES CONDE,22,PICARDIE,2,Aisne,48.986365,3.567538,M532,MNTNLSKNT
2250,2516,,Montigny-sous-Marle,,MONTIGNY-SOUS-MARLE,MONTIGNY SOUS MARLE,22,PICARDIE,2,Aisne,49.747087,3.789944,M532,MNTNSSMRL
2270,2517,,Montigny-sur-Crécy,,MONTIGNY-SUR-CRECY,MONTIGNY SUR CRECY,22,PICARDIE,2,Aisne,49.716355,3.584285,M532,MNTNSRKRS
2330,2518,,Montlevon,,MONTLEVON,MONTLEVON,22,PICARDIE,2,Aisne,48.965421,3.539567,M534,MNTLFN
2340,2519,,Montloué,,MONTLOUE,MONTLOUE,22,PICARDIE,2,Aisne,49.67423,4.070665,M534,MNTL
2220,2520,,Mont-Notre-Dame,,MONT-NOTRE-DAME,MONT NOTRE DAME,22,PICARDIE,2,Aisne,49.296219,3.581539,M535,MNTNTRTM
2310,2521,,Montreuil-aux-Lions,,MONTREUIL-AUX-LIONS,MONTREUIL AUX LIONS,22,PICARDIE,2,Aisne,49.022525,3.1963,M536,MNTRLKSLNS
2360,2522,,Mont-Saint-Jean,,MONT-SAINT-JEAN,MONT ST JEAN,22,PICARDIE,2,Aisne,49.78976,4.208556,M532,MNTSNTJN
2220,2523,,Mont-Saint-Martin,,MONT-SAINT-MARTIN,MONT ST MARTIN,22,PICARDIE,2,Aisne,49.283264,3.638457,M532,MNTSNTMRTN
2400,2524,,Mont-Saint-Père,,MONT-SAINT-PERE,MONT ST PERE,22,PICARDIE,2,Aisne,49.075335,3.492675,M532,MNTSNTPR
2100,2525,,Morcourt,,MORCOURT,MORCOURT,22,PICARDIE,2,Aisne,49.875657,3.32336,M626,MRKRT
2360,2526,,Morgny-en-Thiérache,,MORGNY-EN-THIERACHE,MORGNY EN THIERACHE,22,PICARDIE,2,Aisne,49.760381,4.076724,M625,MRNN0RX
2290,2527,,Morsain,,MORSAIN,MORSAIN,22,PICARDIE,2,Aisne,49.453737,3.178191,M625,MRSN
2600,2528,,Mortefontaine,,MORTEFONTAINE,MORTEFONTAINE,22,PICARDIE,2,Aisne,49.33137,3.07867,M631,MRTFNTN
2270,2529,,Mortiers,,MORTIERS,MORTIERS,22,PICARDIE,2,Aisne,49.68713,3.667505,M636,MRTRS
2160,2530,,Moulins,,MOULINS,MOULINS,22,PICARDIE,2,Aisne,49.420545,3.685416,M452,MLNS
2160,2531,,Moussy-Verneuil,,MOUSSY-VERNEUIL,MOUSSY VERNEUIL,22,PICARDIE,2,Aisne,49.415918,3.636382,M216,MSFRNL
2610,2532,,Moÿ-de-l'Aisne,,MOY-DE-L'AISNE,MOY DE L AISNE,22,PICARDIE,2,Aisne,49.751646,3.358338,M342,MTLSN
2210,2533,,Muret-et-Crouttes,,MURET-ET-CROUTTES,MURET ET CROUTTES,22,PICARDIE,2,Aisne,49.285552,3.416204,M633,MRTTKRTS
2160,2534,,Muscourt,,MUSCOURT,MUSCOURT,22,PICARDIE,2,Aisne,49.363327,3.745667,M263,MSKRT
2140,2535,,Nampcelles-la-Cour,,NAMPCELLES-LA-COUR,NAMPCELLES LA COUR,22,PICARDIE,2,Aisne,49.77812,4.003565,N512,NMPSLSLKR
2200,2536,,Nampteuil-sous-Muret,,NAMPTEUIL-SOUS-MURET,NAMPTEUIL SOUS MURET,22,PICARDIE,2,Aisne,49.30071,3.42581,N513,NMPTLSSMRT
2880,2537,,Nanteuil-la-Fosse,,NANTEUIL-LA-FOSSE,NANTEUIL LA FOSSE,22,PICARDIE,2,Aisne,49.434291,3.452286,N534,NNTLLFS
2210,2538,,Nanteuil-Notre-Dame,,NANTEUIL-NOTRE-DAME,NANTEUIL NOTRE DAME,22,PICARDIE,2,Aisne,49.19186,3.407995,N534,NNTLNTRTM
2420,2539,,Nauroy,,NAUROY,NAUROY,22,PICARDIE,2,Aisne,49.952191,3.251919,N600,NR
2400,2540,,Nesles-la-Montagne,,NESLES-LA-MONTAGNE,NESLES LA MONTAGNE,22,PICARDIE,2,Aisne,49.019675,3.424955,N242,NSLSLMNTN
2190,2541,,Neufchâtel-sur-Aisne,,NEUFCHATEL-SUR-AISNE,NEUFCHATEL SUR AISNE,22,PICARDIE,2,Aisne,49.432765,4.030845,N123,NFXTLSRSN
2300,2542,,Neuflieux,,NEUFLIEUX,NEUFLIEUX,22,PICARDIE,2,Aisne,49.61927,3.16052,N142,NFLKS
2470,2543,,Neuilly-Saint-Front,,NEUILLY-SAINT-FRONT,NEUILLY ST FRONT,22,PICARDIE,2,Aisne,49.17108,3.2616,N425,NLSNTFRNT
2500,2544,,Neuve-Maison,,NEUVE-MAISON,NEUVE MAISON,22,PICARDIE,2,Aisne,49.93044,4.032485,N152,NFMSN
2250,2545,La,Neuville-Bosmont,LA,NEUVILLE-BOSMONT,LA NEUVILLE BOSMONT,22,PICARDIE,2,Aisne,49.713422,3.839769,N141,NFLPSMNTL
2300,2546,La,Neuville-en-Beine,LA,NEUVILLE-EN-BEINE,LA NEUVILLE EN BEINE,22,PICARDIE,2,Aisne,49.674785,3.151887,N145,NFLNPNL
2250,2547,La,Neuville-Housset,LA,NEUVILLE-HOUSSET,LA NEUVILLE HOUSSET,22,PICARDIE,2,Aisne,49.79202,3.729095,N142,NFLSTL
2450,2548,La,Neuville-lès-Dorengt,LA,NEUVILLE-LES-DORENGT,LA NEUVILLE LES DORENGT,22,PICARDIE,2,Aisne,49.978045,3.673285,N144,NFLLSTRNKTL
2100,2549,,Neuville-Saint-Amand,,NEUVILLE-SAINT-AMAND,NEUVILLE ST AMAND,22,PICARDIE,2,Aisne,49.825384,3.334909,N142,NFLSNTMNT
2860,2550,,Neuville-sur-Ailette,,NEUVILLE-SUR-AILETTE,NEUVILLE SUR AILETTE,22,PICARDIE,2,Aisne,49.466385,3.698906,N142,NFLSRLT
2880,2551,,Neuville-sur-Margival,,NEUVILLE-SUR-MARGIVAL,NEUVILLE SUR MARGIVAL,22,PICARDIE,2,Aisne,49.45209,3.399889,N142,NFLSRMRJFL
2390,2552,,Neuvillette,,NEUVILLETTE,NEUVILLETTE,22,PICARDIE,2,Aisne,49.854476,3.484378,N143,NFLT
2150,2553,,Nizy-le-Comte,,NIZY-LE-COMTE,NIZY LE COMTE,22,PICARDIE,2,Aisne,49.567995,4.05413,N242,NSLKMT
2400,2554,,Nogentel,,NOGENTEL,NOGENTEL,22,PICARDIE,2,Aisne,49.015585,3.40229,N253,NJNTL
2310,2555,,Nogent-l'Artaud,,NOGENT-L'ARTAUD,NOGENT L ARTAUD,22,PICARDIE,2,Aisne,48.977291,3.26444,N253,NJNTLRTT
2340,2556,,Noircourt,,NOIRCOURT,NOIRCOURT,22,PICARDIE,2,Aisne,49.668611,4.091469,N626,NRKRT
2600,2557,,Noroy-sur-Ourcq,,NOROY-SUR-OURCQ,NOROY SUR OURCQ,22,PICARDIE,2,Aisne,49.206038,3.214679,N626,NRSRRK
2170,2558,Le,Nouvion-en-Thiérache,LE,NOUVION-EN-THIERACHE,LE NOUVION EN THIERACHE,22,PICARDIE,2,Aisne,50.016665,3.78419,N155,NFNN0RXL
2270,2559,,Nouvion-et-Catillon,,NOUVION-ET-CATILLON,NOUVION ET CATILLON,22,PICARDIE,2,Aisne,49.703678,3.48721,N153,NFNTKTLN
2800,2560,,Nouvion-le-Comte,,NOUVION-LE-COMTE,NOUVION LE COMTE,22,PICARDIE,2,Aisne,49.699379,3.463562,N154,NFNLKMT
2860,2561,,Nouvion-le-Vineux,,NOUVION-LE-VINEUX,NOUVION LE VINEUX,22,PICARDIE,2,Aisne,49.503025,3.610025,N154,NFNLFNKS
2290,2562,,Nouvron-Vingré,,NOUVRON-VINGRE,NOUVRON VINGRE,22,PICARDIE,2,Aisne,49.429412,3.201847,N165,NFRNFNKR
2120,2563,,Noyales,,NOYALES,NOYALES,22,PICARDIE,2,Aisne,49.898332,3.554847,N420,NLS
2200,2564,,Noyant-et-Aconin,,NOYANT-ET-ACONIN,NOYANT ET ACONIN,22,PICARDIE,2,Aisne,49.332896,3.335217,N533,NNTTKNN
2160,2565,,uilly,,OEUILLY,OEUILLY,22,PICARDIE,2,Aisne,49.390525,3.68795,O400,AL
2300,2566,,Ognes,,OGNES,OGNES,22,PICARDIE,2,Aisne,49.612779,3.194936,O252,AKNS
2500,2567,,Ohis,,OHIS,OHIS,22,PICARDIE,2,Aisne,49.92979,4.009295,O200,AHS
2600,2568,,Oigny-en-Valois,,OIGNY-EN-VALOIS,OIGNY EN VALOIS,22,PICARDIE,2,Aisne,49.21947,3.13489,O255,ANNFLS
2450,2569,,Oisy,,OISY,OISY,22,PICARDIE,2,Aisne,50.022645,3.661855,O200,AS
2480,2570,,Ollezy,,OLLEZY,OLLEZY,22,PICARDIE,2,Aisne,49.73514,3.142428,O420,ALS
2100,2571,,Omissy,,OMISSY,OMISSY,22,PICARDIE,2,Aisne,49.880006,3.313203,O520,AMS
2190,2572,,Orainville,,ORAINVILLE,ORAINVILLE,22,PICARDIE,2,Aisne,49.381115,4.021427,O651,ARNFL
2860,2573,,Orgeval,,ORGEVAL,ORGEVAL,22,PICARDIE,2,Aisne,49.50801,3.704085,O621,ARJFL
2550,2574,,Origny-en-Thiérache,,ORIGNY-EN-THIERACHE,ORIGNY EN THIERACHE,22,PICARDIE,2,Aisne,49.889974,4.020112,O625,ARNN0RX
2390,2575,,Origny-Sainte-Benoite,,ORIGNY-SAINTE-BENOITE,ORIGNY STE BENOITE,22,PICARDIE,2,Aisne,49.840065,3.489375,O625,ARNSNTPNT
2290,2576,,Osly-Courtil,,OSLY-COURTIL,OSLY COURTIL,22,PICARDIE,2,Aisne,49.40227,3.229,O242,ASLKRTL
2370,2577,,Ostel,,OSTEL,OSTEL,22,PICARDIE,2,Aisne,49.42967,3.57067,O234,ASTL
2160,2578,,Oulches-la-Vallée-Foulon,,OULCHES-LA-VALLEE-FOULON,OULCHES LA VALLEE FOULON,22,PICARDIE,2,Aisne,49.428588,3.744334,O422,ALXSLFLFLN
2210,2579,,Oulchy-la-Ville,,OULCHY-LA-VILLE,OULCHY LA VILLE,22,PICARDIE,2,Aisne,49.212866,3.350434,O424,ALXLFL
