ID,id_client,Selection,osm_id,osm_type,poi_name,geo_lat,geo_lng,tbl_cat_poi,cat_name,address_1,postcode,town,ANN_NOM,CATEGORIE_LIBELLE,QUARTIER_LIBELLE,ANN_TELEPHONE,ANN_FAX,ANN_COURRIEL,ANN_SITEINTERNET,ANN_STATIONNEMENT,ANN_POINTADRESSE,ANN_GPS,ANN_ADDR_NUMERO,ANN_ADDR_SUFFIXE,ANN_ADDR_VOIETYPE,ANN_ADDR_NOMVOIE,ANN_ADDR_COMPLEMENTAIRE,ANN_ADDR_CODEPOSTAL,ANN_ADDR_VILLE,ANN_ADDR_CEDEX,ANN_AME_ACCESSIBILITEGENERALE,ANN_AME_TOILETTE,ANN_AME_ASCENSEUR,ANN_AME_PLACESTATIONNEMENT,ANN_AME_ACCESSIBILITESTATIONNEMENT,ANN_ACCES_PRECISION,ANN_ACCES_TRAM,ANN_ACCES_BUS,ANN_COMMENTAIRE,ANN_ENSAVOIRPLUS
699453,453,1,,1,Patinoire Végapolis,43.6036979201147,3.91887772367134,1200,#LOISIR#SPORT#PATINOIRE,Place de France,34000,MONTPELLIER,Patinoire Végapolis,Patinoire,Port Marianne,04 99 52 26 00,04 99 52 26 01,contact@vegapolis.net,http://www.vegapolis.net/,,NULL,NULL,,NULL,BP71,NULL,,34935,Montpellier,9,,,,,,NULL,"Ligne nÂ°1, direction Odysseum, terminus Odysseum","Lignes 9, 29, 31 et La Ronde: arrèt Odysseum","<ul><li>De l'autoroute A9 sortie Montpellier Est, direction le Millénaire puis Odysseum </li><li>De Montpellier Direction les plages (vers A9), sortie le Millénaire puis Odysseum </li><li>Des plages direction Montpellier Centre par l'aéroport-Fréjorgues, ",NULL
699456,462,,,1,Planétarium Galilée,43.6112423,3.8767336,1200,#LOISIR#CULTURE#PLANETARIUM,Allée d'Ulysse,34000,MONTPELLIER,Planétarium Galilée,Planetarium,Port Marianne,04 67 13 26 26,04 67 13 26 29,planetarium@montpellier-agglo.com,http://www.planetarium-galilee.com,Odysseum,,,100,,Allée,Ulysse,,34000,Montpellier,,AUX_NORMES,,,,,,"ligne1, station Odysseum","""Bus """"La Ronde"""" et nÂ°9 - arrèt Odysseum ""","""<p class=""""AccueilTitre"""">Au coeur d'Odysseum</p> <p>Le plan&#233",tarium Galil&#233
699536,211,,617655390,1,Halte-garderie municipale Villeneuve d'Angoulème,43.5887869,3.864366,10405,#EDUCATION#CRECHE,Rue Fernandel,34000,MONTPELLIER,Multi accueils Villeneuve d'Angoulème,Multi-accueils municipaux,Croix d'Argent,04 67 42 09 36,,,,,NULL,NULL,328,NULL,rue Fernandel,NULL,,34070,Montpellier,,,,,,,NULL,,,<p>Â </p>,NULL
699375,212,,617646074,1,Halte-garderie municipale Espace Famille,43.5929107,3.8646359,10405,#EDUCATION#CRECHE,Rue Louis Aragon,34000,MONTPELLIER,,,,,,,,,,,,,,,,,,,,,,,,,,,,
699376,213,,629023578,1,Lieu de rencontre parents-enfants Le Baobab,43.5929262,3.8647646,10405,#EDUCATION#CRECHE,Rue Louis Aragon,34000,MONTPELLIER,Le Baobab - rue Louis Aragon,Lieux de rencontre parents / enfants,Croix d'Argent,04 67 27 43 92,,,,,NULL,NULL,191,NULL,rue Louis Aragon,NULL,HLM Croix d'Argent,34070,Montpellier,,,,,,,NULL,,,<ul><li> Vendredi de 14h30 à  17h30</li></ul>,NULL
699783,209,,621900172,1,Crèche associative ou parentale La Ribambelle,43.5930981,3.8413142,10405,#EDUCATION#CRECHE,Place Saint-Simon,34000,MONTPELLIER,Crèche La Ribambelle,Crèches parentales et associatives,Croix d'Argent,04 67 47 02 81,,,,,,,170,,place St-Simon,Val de Croze,appt 161,34070,Montpellier,,,,,,,,,,,
699372,207,,621890204,1,Crèche associative La belle Journée,43.5938386,3.8407291,10405,#EDUCATION#CRECHE,Place de Chine,34000,MONTPELLIER,La Belle Journée,Crèches parentales et associatives,Croix d'Argent,04 67 69 94 93,,,,,,,124,,Place de Chine -,236 Rue de Cheng Du,,34000,MONTPELLIER,,,,,,,,,,,
699547,472,,608350365,1,Crèche collective municipale Thérèse Sentis,43.5947529,3.8846084,10405,#EDUCATION#CRECHE,Avenue du Maréchal Leclerc,34000,MONTPELLIER,Crèche Thérèse-Sentis,Crèches municipales,Prés d'Arênes,04 67 65 45 87,,,,,NULL,NULL,655,NULL,avenue Maréchal Leclerc,NULL,,34070,Montpellier,,,,,,,NULL,,,<p>Â </p>,NULL
699352,132,,585202599,1,Halte-garderie municipale L'Oustal dou Caganis,43.5955457,3.8845789,10405,#EDUCATION#CRECHE,Rue des Razeteurs,34000,MONTPELLIER,Multi accueils L'Oustal dou Caganis,Multi-accueils municipaux,Prés d'Arênes,04 67 65 32 72,,,,,,,67,,rue,des Razeteurs,,34070,Montpellier,,,,,,,,,,,
699374,210,,621911520,1,Halte-garderie municipale Mary Poppins,43.5969645,3.8711952,10405,#EDUCATION#CRECHE,"82, place Cardinal Verdier",34000,MONTPELLIER,Multi accueils Mary Poppins,Multi-accueils municipaux,Croix d'Argent,04 67 47 24 45,,,,,,,82,,place,Cardinal Verdier,,34070,Montpellier,,,,,,,,,,,
699371,206,,608304402,1,Crèche collective municipale Blanche Neige,43.5971149,3.871246,10405,#EDUCATION#CRECHE,"17, place Cardinal Verdier",34000,MONTPELLIER,Crèche Blanche Neige,Crèches municipales,Croix d'Argent,04 67 47 17 44,,,,,NULL,NULL,17,NULL,place Cardinal Verdier,NULL,,34070,Montpellier,,,,,,,NULL,,,,NULL
699834,208,,613529339,1,Crèche parentale Bamboubulle,43.5985989,3.8436882,10405,#EDUCATION#CRECHE,Rue Camille Desmoulins,34000,MONTPELLIER,Crèche Bambobulle,Crèches parentales et associatives,Croix d'Argent,04 67 47 14 07,,,,,,,241,,Rue Camille Desmoulins,Esc. 32 Cité Paul Valéry,,34070,Montpellier,,,,,,,,,,,
699771,214,,628994478,1,Lieu de rencontre parents-enfants Jouons en ludothèque,43.5991741,3.8435087,10405,#EDUCATION#CRECHE,Rue Danton,34000,MONTPELLIER,Jouons en ludothèques,Lieux de rencontre parents / enfants,Les Cévennes,04 67 69 00 81,,,,,NULL,NULL,74,NULL,rue Danton,NULL,Cité Paul Valéry,34070,Montpellier,,,,,,,NULL,,,<p>Â </p>,NULL
699491,473,,617728569,1,Lieu de rencontre parents-enfants L'aile et la Plume,43.5811357,3.8768632,10405,#EDUCATION#CRECHE,Place de Tibériade,34000,MONTPELLIER,,,,,,,,,,,,,,,,,,,,,,,,,,,,
699402,474,,608144010,1,Lieu de rencontre parents-enfants Maison de quartier Jean-Pierre Caillens,43.5813151,3.8769958,10405,#EDUCATION#CRECHE,Place de Tournezy,34000,MONTPELLIER,,,,,,,,,,,,,,,,,,,,,,,,,,,,
699540,410,,585178469,1,Crèche collective municipale Françoise Dolto,43.6013947,3.8496743,10405,#EDUCATION#CRECHE,Rue du Père Cyprien Rome,34000,MONTPELLIER,Crèche Françoise Dolto,Crèches municipales,Les Cévennes,04 67 69 94 41,,,,,NULL,NULL,5,NULL,rue du Père Cyprien Rome,NULL,,34070,Montpellier,,,,,,,NULL,,,<p>Â </p>,NULL
699627,432,,617636853,1,Crèche collective Robin des Bois,43.6018745,3.9156578,10405,#EDUCATION#CRECHE,Boulevard Pénélope,34000,MONTPELLIER,Crèche Robin des Bois,Crèches municipales,Port Marianne,04 99 64 22 50,,,,,NULL,NULL,280,NULL,boulevard Pénélope,NULL,,34000,Montpellier,,,,,,,NULL,,,<p>Â </p>,NULL
699740,430,,617638467,1,Crèche familiale municipale Les Elfes,43.6019172,3.9155692,10405,#EDUCATION#CRECHE,Boulevard Pénélope,34000,MONTPELLIER,Crèche Les Elfes,Crèches familiales municipales,Port Marianne,04 67 15 65 43,,,,,NULL,NULL,280,NULL,boulevard Pénélope,NULL,,34000,Montpellier,,,,,,,NULL,,,,NULL
699565,433,,617639143,1,"Halte-garderie Mowgli,",43.6019503,3.915462,10405,#EDUCATION#CRECHE,Boulevard Pénélope,34000,MONTPELLIER,Multi accueils Mowgli,Multi-accueils municipaux,Port Marianne,04 99 64 22 51,,,,,,,280,,boulevard,Pénélope,,34000,Montpellier,,,,,,,,,,,
699624,431,,617639404,1,Crèche familiale municipale Les Petits Loups,43.6019639,3.9153466,10405,#EDUCATION#CRECHE,Boulevard Pénélope,34000,MONTPELLIER,Crèche Les Petits Loups,Crèches familiales municipales,Port Marianne,04 67 15 65 44,,,,,NULL,NULL,,NULL,280 Boulevard Pénélope,NULL,,34000,Montpellier,,,,,,,NULL,,,<p>Â </p>,NULL
699682,297,,607355557,1,Crèche collective municipale Edelweiss,43.6034665,3.880709,10405,#EDUCATION#CRECHE,Rue du Général Riu,34000,MONTPELLIER,Crèche Edelweiss,Crèches municipales,Montpellier Centre,04 67 64 08 11,,,,,,,21,,rue,Général Riu,,34000,Montpellier,,,,,,,,,,,
699820,301,,585171936,1,Crèche associative ou parentale La Gerbe,43.6052053,3.8707432,10405,#EDUCATION#CRECHE,Rue Chaptal,34000,MONTPELLIER,Crèche La Gerbe,Crèches parentales et associatives,Montpellier Centre,04 99 74 24 32,,,,,,,19,,rue,Chaptal,,34000,Montpellier,,,,,,,,,,,
699383,306,,601514881,1,Halte-garderie municipale Les Farfadets,43.6055691,3.8588597,10405,#EDUCATION#CRECHE,Rue Albert Samain,34000,MONTPELLIER,Multi accueils Les Farfadets,Multi-accueils municipaux,Montpellier Centre,04 67 27 69 46,,,,,,,4-Jun,,rue,Albert Samain,,34070,Montpellier,,,,,,,,,,,
699603,309,,629025208,1,Lieu de rencontre parents-enfants Montpellier Gambetta,43.6056472,3.8734883,10405,#EDUCATION#CRECHE,Rue Brueys,34000,MONTPELLIER,Le Baobab - rue Brueys,Lieux de rencontre parents / enfants,Montpellier Centre,04 67 79 26 03,,,,,NULL,NULL,1 bis,NULL,rue Brueys,NULL,,34000,Montpellier,,,,,,,NULL,,,<p>Â </p>,NULL
699828,34,,613535562,1,Crèche parentale Les Moussaillons,43.6070913,3.8616399,10405,#EDUCATION#CRECHE,Impasse Jean Bruller dit Vercors,34000,MONTPELLIER,Crèche Les Moussaillons,Crèches parentales et associatives,Croix d'Argent,04 67 58 13 86,,,,,,,156,,impasse Jean Bruller dit Vercors,Résidence La Guirlande,,34070,Montpellier,,,,,,,,,,,
699488,65,,585173372,1,Crèche collective municipale Antigone,43.6072273,3.8845815,10405,#EDUCATION#CRECHE,Rue Jeanne d'Arc,34000,MONTPELLIER,Crèche Antigone,Crèches municipales,Montpellier Centre,04 67 64 28 15,,,,,NULL,NULL,10,NULL,rue Jeanne d'Arc,NULL,,34000,Montpellier,,,,,,,NULL,,,,NULL
699679,303,,585203689,1,Halte-garderie municipale La Coupole,43.6077742,3.8909382,10405,#EDUCATION#CRECHE,Place Zeus,34000,MONTPELLIER,Multi accueils La Coupole,Multi-accueils municipaux,Montpellier Centre,04 67 64 06 62,,,,,NULL,NULL,45,NULL,place Zeus,NULL,,34000,Montpellier,,,,,,,NULL,,,<p>Â </p>,NULL
699835,71,,629020994,1,Lieu de rencontre parents-enfants Le Baobab,43.6087716,3.8876144,10405,#EDUCATION#CRECHE,Place du Nombre d'Or,34000,MONTPELLIER,Le Baobab - place du Nombre d'Or,Lieux de rencontre parents / enfants,Montpellier Centre,04 67 64 86 15,,,,,NULL,NULL,10-Dec,NULL,place du Nombre d'Or,NULL,,34000,Montpellier,,,,,,,NULL,,,<ul><li>Locaux de l'ADRA</li><li>Mardi de 14h à  17h</li></ul>,NULL
699759,413,,617642399,1,Halte-garderie municipale André Chamson,43.6090618,3.8358226,10405,#EDUCATION#CRECHE,Rue Gustave Eiffel,34000,MONTPELLIER,,,,,,,,,,,,,,,,,,,,,,,,,,,,
699557,298,,598188107,1,Crèche collective municipale Sophie Lagrèze,43.6100986,3.8656501,10405,#EDUCATION#CRECHE,Rue Draparnaud,34000,MONTPELLIER,Crèche Sophie-Lagrèze,Crèches municipales,Montpellier Centre,04 67 92 24 66,,,,,,,8,,Rue,Jacques Draparnaud,,34000,Montpellier,,,,,,,,,,,
699575,435,,628967188,1,Jardin d'enfants associatif Les Lutins,43.6102409,3.9159778,10405,#EDUCATION#CRECHE,Rue Henri Becquerel,34000,MONTPELLIER,Jardin d'enfants Les Lutins (associatif),Jardins d'enfants,Port Marianne,04 67 20 26 00,,,,,NULL,NULL,1025,NULL,rue Henri Becquerel,NULL,"Parc Club du Millénaire, bât 5",34000,Montpellier,,,,,,,NULL,,,<ul><li>Â Jardin d'enfants associatif</li></ul><p>à  partir de 18 mois</font /></p>,NULL
699822,118,,621896482,1,Crèche associative ou parentale Coste Belle,43.6104339,3.9039906,10405,#EDUCATION#CRECHE,Rue des Frères Lumière,34000,MONTPELLIER,Crèche Coste Belle,Crèches parentales et associatives,Port Marianne,04 67 65 33 32,,,,,,,,,Rue,des Frères Lumières,,34000,Montpellier,,,,,,,,,,,
699496,69,,585204684,1,Halte-garderie municipale La Maison des Enfants,43.6105764,3.8787093,10405,#EDUCATION#CRECHE,Rue Embouque d'Or,34000,MONTPELLIER,Multi accueils La Maison des Enfants,Multi-accueils municipaux,Montpellier Centre,04 67 60 71 93,,,,,NULL,NULL,1,NULL,rue Embouque d'Or,NULL,,34000,Montpellier,,,,,,,NULL,,,<p>Â </p>,NULL
699720,111,,585199240,1,Crèche et garde d'enfants La Bambinerie,43.6115692,3.8551489,10405,#EDUCATION#CRECHE,Rue des Sureaux,34000,MONTPELLIER,Crèche La Bambinerie,Crèches parentales et associatives,Les Cévennes,04 67 58 21 05,,,,,,,11,,rue,des Sureaux,,34000,Montpellier,,,,,,,,,,,
699533,412,,621903392,1,Crèche collective La Coccinelle,43.6138623,3.8389265,10405,#EDUCATION#CRECHE,Avenue de Lodève,34000,MONTPELLIER,Crèche La Coccinelle,Crèches parentales et associatives,Les Cévennes,04 67 03 06 32,,,,,NULL,NULL,194,NULL,avenue de Lodève,NULL,,34080,Montpellier,,,,,,,NULL,,,,NULL
699862,67,,585182991,1,Crèche collective municipale Sept Nains,43.6142035,3.8795472,10405,#EDUCATION#CRECHE,Impasse de la Petite Corraterie,34000,MONTPELLIER,Crèche Sept Nains,Crèches municipales,Montpellier Centre,04 67 60 30 67,,,,,NULL,NULL,2,NULL,impasse Petite Corraterie,NULL,,34000,Montpellier,,,,,,,NULL,,,<p>Â </p>,NULL
699385,307,,598191190,1,Jardin d'enfant privé Le Petit Home,43.6158375,3.8628357,10405,#EDUCATION#CRECHE,Avenue d'Assas,34000,MONTPELLIER,Jardin d'éveil franco-anglais Le Petit Home (associatif),Jardins d'enfants,Montpellier Centre,04 67 04 18 18,,,,,NULL,NULL,55,NULL,avenue d'Assas,NULL,,34000,Montpellier,,,,,,,NULL,,,<ul><li>Â Jardin d'enfants privé</li></ul>,NULL
699763,156,,608113364,1,Lieu de rencontre parents-enfants Le Baobab,43.6159641,3.8901515,10405,#EDUCATION#CRECHE,Avenue de Saint Maur,34000,MONTPELLIER,Le Baobab - Avenue de Saint Maur,Lieux de rencontre parents / enfants,Montpellier Centre,04 67 79 26 03,,,,,NULL,NULL,594,NULL,Avenue de Saint Maur,NULL,,34000,Montpellier,,,,,,,NULL,,,<p>Â </p>,NULL
699439,299,,595270981,1,Crèche collective municipale Pinocchio,43.6167523,3.8786172,10405,#EDUCATION#CRECHE,Rue Ferdinand Fabre,34000,MONTPELLIER,Crèche Pinocchio,Crèches municipales,Montpellier Centre,04 67 41 48 40,,,,,NULL,NULL,16,NULL,rue Ferdinand Fabre,NULL,,34000,Montpellier,,,,,,,NULL,,,<p>Â </p>,NULL
699382,305,,595265152,1,Halte-garderie municipale L'à®le au trésor,43.6167834,3.8785314,10405,#EDUCATION#CRECHE,Rue Ferdinand Fabre,34000,MONTPELLIER,Multi accueils L'à®le au Trésor,Multi-accueils municipaux,Montpellier Centre,04 67 41 48 41,,,,,NULL,NULL,18,NULL,rue Ferdinand Fabre,NULL,,34000,Montpellier,,,,,,,NULL,,,,NULL
699764,252,,617647688,1,Halte-garderie municipale Les Chats Bottés,43.6169955,3.8284237,10405,#EDUCATION#CRECHE,Rue Jeanne de Charrin,34000,MONTPELLIER,Multi accueils Les Chats Bottés,Multi-accueils municipaux,Mosson,04 67 75 45 79,,,,,NULL,NULL,24,NULL,rue Jeanne de Charrin,NULL,,34080,Montpellier,,,,,,,NULL,,,,NULL
699417,300,,595256929,1,Crèche associative ou parentale Accroche CÅ“ur,43.6176844,3.8820611,10405,#EDUCATION#CRECHE,Rue de la Cavalerie,34000,MONTPELLIER,Crèche Accroche CÅ“ur,Crèches parentales et associatives,Montpellier Centre,04 67 72 62 82,,,,,NULL,NULL,34,NULL,rue de la Cavalerie appt 47,NULL,,34000,Montpellier,,,,,,,NULL,,,,NULL
699747,120,,613519250,1,Crèche inter-entreprises Les Petits Chaperons Rouges,43.6178843,3.9156774,10405,#EDUCATION#CRECHE,"91, rue de Thor",34000,MONTPELLIER,,,,,,,,,,,,,,,,,,,,,,,,,,,,
699768,68,,621893739,1,Crèche associative Les Bambins du Lez,43.6180815,3.8914164,10405,#EDUCATION#CRECHE,Rue des Paradisiers,34000,MONTPELLIER,Crèche Les Bambins du Lez,Crèches parentales et associatives,Montpellier Centre,04 67 72 94 83,,,,,NULL,NULL,196,NULL,rue des Paradisiers,NULL,,34000,Montpellier,,,,,,,NULL,,,,NULL
699784,119,,585201019,1,Crèche parentale Ricochet,43.6181211,3.9012512,10405,#EDUCATION#CRECHE,Rue d'Astier de la Vigerie,34000,MONTPELLIER,Crèche Ricochet,Crèches parentales et associatives,Port Marianne,04 67 79 96 20,,,,,NULL,NULL,134,NULL,rue d'Astier de la Vigerie,NULL,"escalier 3, appt. 64",34000,Montpellier,,,,,,,NULL,,,,NULL
699814,66,,595257498,1,Crèche collective municipale Cléonice Pouzin,43.6184844,3.8818144,10405,#EDUCATION#CRECHE,Rue Lunaret,34000,MONTPELLIER,Crèche Cléonice Pouzin,Crèches municipales,Montpellier Centre,04 67 79 63 64,,,,,NULL,NULL,64,NULL,rue Lunaret,NULL,,34070,Montpellier,,,,,,,NULL,,,,NULL
699604,310,,617718152,1,Lieu de rencontre parents-enfants Doudou partage,43.6189235,3.8939905,10405,#EDUCATION#CRECHE,Avenue Saint-André de Novigens,34000,MONTPELLIER,,,,,,,,,,,,,,,,,,,,,,,,,,,,
699821,302,,598178112,1,Halte-garderie municipale Europa Assas,43.6192745,3.8623153,10405,#EDUCATION#CRECHE,Rue Eugène Labiche,34000,MONTPELLIER,Multi accueils Europa Assas,Multi-accueils municipaux,Montpellier Centre,04 67 52 00 76,,,,,NULL,NULL,79,NULL,rue Eugène Labiche,NULL,,34000,Montpellier,,,,,,,NULL,,,<p>Â </p>,NULL
699856,308,,629010515,1,Lieu de rencontre parents-enfants Le Baobab,43.6194177,3.8745441,10405,#EDUCATION#CRECHE,Rue des Abeilles,34000,MONTPELLIER,Le Baobab La Ruche - rue des Abeilles,Lieux de rencontre parents / enfants,Montpellier Centre,04 67 79 26 03,,,,,NULL,NULL,11,NULL,rue des Abeilles,NULL,,34090,Montpellier,,,,,,,NULL,,,<ul><li>Jeudi de 14h à  17h</li></ul>,NULL
699662,70,,595252160,1,Jardin d'enfant municipal Les Boutons d'Or,43.6211146,3.8876449,10405,#EDUCATION#CRECHE,Avenue Saint-Lazare,34000,MONTPELLIER,Jardin d'enfants Les Boutons d'Or (municipal),Jardins d'enfants,Montpellier Centre,,,,,,NULL,NULL,42,NULL,avenue St-Lazare,NULL,,34000,Montpellier,,,,,,,NULL,,,<p>Â </p>,NULL
699419,411,,621905206,1,Crèche collective municipale La Galinéta,43.6216462,3.8424998,10405,#EDUCATION#CRECHE,Rue des Avant-Monts,34000,MONTPELLIER,Crèche Galinéta,Crèches municipales,Les Cévennes,04 67 54 56 20,,,,,NULL,NULL,31,NULL,rue des Avants-Monts,NULL,,34080,Montpellier,,,,,,,NULL,,,,NULL
699384,304,,621887496,1,Halte-garderie municipale Les Coquelicots,43.6221284,3.8891273,10405,#EDUCATION#CRECHE,Rue Pablo Casals,34000,MONTPELLIER,Multi accueils Les Coquelicots,Multi-accueils municipaux,Montpellier Centre,04 67 72 09 91,,,,,NULL,NULL,151bis,NULL,Rue Pablo Cazals,NULL,,34000,Montpellier,,,,,,,NULL,,,<p>Â </p>,NULL
699494,48,,617638790,1,Lieu de rencontre parents-enfants Le Baobab,43.624283,3.8178394,10405,#EDUCATION#CRECHE,Avenue de Barcelone,34000,MONTPELLIER,Le Baobab - avenue de Barcelone,Lieux de rencontre parents / enfants,Mosson,04 67 75 36 93,,,,,NULL,NULL,410,NULL,avenue de Barcelone,NULL,,34080,Montpellier,,,,,,,NULL,,,<ul><li>Centre Social CAF</li><li>Jeudi de 14h à  17h</li></ul>,NULL
699495,49,,617638670,1,Lieu de rencontre parents-enfants l'Ecole des Parents et des Educateurs,43.624349,3.8178448,10405,#EDUCATION#CRECHE,Avenue de Barcelone,34000,MONTPELLIER,L'école des Parents et des Educateurs,Lieux de rencontre parents / enfants,Mosson,04 67 03 43 58,,,,,NULL,NULL,410,NULL,avenue de Barcelone,NULL,,34080,Montpellier,,,,,,,NULL,,,<ul><li>Centre social CAF</li></ul>,NULL
699410,296,,585181730,1,Crèche collective municipale Petit Prince de Boutonnet,43.6251693,3.8752011,10405,#EDUCATION#CRECHE,Rue Émile Littré,34000,MONTPELLIER,Crèche Petit Prince de Boutonnet,Crèches municipales,Montpellier Centre,04 67 72 13 12,,,,,NULL,NULL,20,NULL,rue Emile Littré,NULL,,34090,Montpellier,,,,,,,NULL,,,,NULL
699555,415,,628986701,1,Jardin d'enfants associatif Sur les Ailes des Lutins,43.6261298,3.8399974,10405,#EDUCATION#CRECHE,Rue de la Goélette,34000,MONTPELLIER,Jardin d'enfants Sur les Ailes des Lutins (associatif),Jardins d'enfants,Les Cévennes,04 67 54 31 58,,,,,NULL,NULL,1,NULL,rue de la Goélette,NULL,Mas de Neuville,34000,Montpellier,,,,,,,NULL,,,<p>Â </p>,NULL
699606,313,,598176200,1,Crèche associative ou parentale Tom-Pouce,43.6269944,3.8877319,10405,#EDUCATION#CRECHE,Rue Philippe Castan,34000,MONTPELLIER,Crèche Tom Pouce,Crèches parentales et associatives,Hôpitaux - Facultés,04 67 72 85 83,,,,,,,139,,Rue Philippe Castan - Bât 14,Rés. Les Picholines,,34090,Montpellier,,,,,,,,,,,
699386,315,,621894755,1,Halte-garderie municipale Pitchot Nanet,43.627428,3.8791929,10405,#EDUCATION#CRECHE,Rue des Tourterelles,34000,MONTPELLIER,Multi accueils Pitchot Nanet,Multi-accueils municipaux,Hôpitaux - Facultés,04 67 72 41 64,,,,,NULL,NULL,11,NULL,rue des Tourterelles,NULL,,34090,Montpellier,,,,,,,NULL,,,<p>Â </p>,NULL
699511,275,,613453652,1,Crèche collective municipale Louise Guiraud,43.6288336,3.8170853,10405,#EDUCATION#CRECHE,"35, rue de Tipasa",34000,MONTPELLIER,Crèche Louise-Guiraud,Crèches municipales,Mosson,4 67 75 42 50,,,,,NULL,NULL,35,NULL,rue de Tipasa,NULL,,34080,Montpellier,,,,,,,NULL,,,,NULL
699388,316,,598132484,1,Lieu de rencontre parents-enfants Pause goûter,43.6300523,3.8436797,10405,#EDUCATION#CRECHE,Avenue du Père Soulas,34000,MONTPELLIER,Pause Goûter (Maison Verte),Lieux de rencontre parents / enfants,Hôpitaux - Facultés,04 67 41 98 21,,spiratdichon@neuf.fr,http://pause.gouter.free.fr,,NULL,NULL,2452,NULL,avenue du Père Soulas,NULL,Village du Père Soulas,34090,Montpellier,,,,,,,NULL,,,,NULL
699487,72,,598114755,1,Crèche associative ou parentale Une Souris Verte,43.6329884,3.8437803,10405,#EDUCATION#CRECHE,Rue de Saint Priest,34000,MONTPELLIER,Crèche Une Souris Verte,Crèches parentales et associatives,Hôpitaux - Facultés,04 67 61 19 94,,,,,,,625,,Rue,de Saint-Priest,Les Garrigues de St Priest,34080,Montpellier,,,,,,,,,,,
699727,314,,,1,Crèche inter-entreprises Les Petits Chaperons Rouges,43.6335088230536,3.83004199522037,10405,#EDUCATION#CRECHE,Rue de Malbosc,34000,MONTPELLIER,,,,,,,,,,,,,,,,,,,,,,,,,,,,
699345,232,,598146025,1,Crèche associative ou parentale Gingko Biloba,43.6413327,3.8627016,10405,#EDUCATION#CRECHE,Route de Mende,34000,MONTPELLIER,,,,,,,,,,,,,,,,,,,,,,,,,,,,
699791,62,,595108948,1,Halte-garderie municipale Les Copains d'Abord,43.6420032,3.8184826,10405,#EDUCATION#CRECHE,Avenue Guilhem de Poitiers,34000,MONTPELLIER,Multi accueils Les Copains d'Abord,Multi-accueils municipaux,Mosson,04 67 40 06 80,,,,,NULL,NULL,1,NULL,Place Jacques Brel,NULL,,34080,Montpellier,,,,,,,NULL,,,<p>Â </p>,NULL
699509,230,,76057268,2,Crèche collective municipale Agropolis,43.6446852680938,3.8700649278854,10405,#EDUCATION#CRECHE,Rue Jean-François Breton,34000,MONTPELLIER,Crèche Agropolis,Crèches municipales,Hôpitaux - Facultés,04 67 41 20 97,,,,,NULL,NULL,30,NULL,rue Jean-François-Breton,NULL,,34090,Montpellier,,,,,,,NULL,,,,NULL
699697,479,,598105567,1,Ecole Élémentaire Denis Diderot,43.5911182,3.8877702,10410,#EDUCATION#ECOLE#PRIMAIRE,Rue de la Bandido,34000,MONTPELLIER,Ecole Élémentaire Diderot,Ecoles Élémentaires,Prés d'Arênes,04 67 92 35 63,,,,,NULL,NULL,16 bis,NULL,rue de la Bandido,NULL,,34000,Montpellier,,,,,,,NULL,,,<p>Â </p>,NULL
699408,475,,598105826,1,Ecole maternelle Jean Cocteau,43.5913202,3.887781,10410,#EDUCATION#ECOLE#PRIMAIRE,Rue de la Bandido,34000,MONTPELLIER,Ecole maternelle Jean-Cocteau,Ecoles maternelles,Prés d'Arênes,04 67 92 15 80,,,,,NULL,NULL,16,NULL,rue de la Bandido,NULL,,34000,Montpellier,,,,,,,NULL,,,,NULL
699379,223,,606174144,1,Ecole Élémentaire Garibaldi,43.5925769,3.8686928,10410,#EDUCATION#ECOLE#PRIMAIRE,"2, place de Fontjun",34000,MONTPELLIER,Ecole Élémentaire Garibaldi,Ecoles Élémentaires,Croix d'Argent,04 67 42 77 13,,,,,NULL,NULL,2,NULL,place de Fontjun,NULL,,34070,Montpellier,,,,,,,NULL,,,<p>Â </p>,NULL
699568,133,,608238627,1,Ecole maternelle Paul Eluard,43.592923,3.8961741,10410,#EDUCATION#ECOLE#PRIMAIRE,Rue de Saint Hilaire,34000,MONTPELLIER,Ecole maternelle Paul-Eluard,Ecoles maternelles,Prés d'Arênes,04 67 64 40 54,,,,,NULL,NULL,219,NULL,rue de Saint Hilaire,NULL,,34000,Montpellier,,,,,,,NULL,,,,NULL
699377,215,,606174142,1,Ecole maternelle Bertie Albrecht,43.5929251,3.8684747,10410,#EDUCATION#ECOLE#PRIMAIRE,"1, place de Fontjun",34000,MONTPELLIER,Ecole maternelle Bertie-Albrecht,Ecoles maternelles,Croix d'Argent,04 67 42 40 74,,,,,NULL,NULL,1,NULL,place de Fontjun,NULL,,34070,Montpellier,,,,,,,NULL,,,,NULL
699698,480,,608234770,1,Ecole Élémentaire Jean Macé,43.5930162,3.8966032,10410,#EDUCATION#ECOLE#PRIMAIRE,Rue de Saint Hilaire,34000,MONTPELLIER,Ecole Élémentaire Jean Macé,Ecoles Élémentaires,Prés d'Arênes,04 67 64 40 60,,,,,NULL,NULL,289,NULL,rue de Saint-Hilaire,NULL,,34000,Montpellier,,,,,,,NULL,,,<p>Â </p>,NULL
699670,220,,606171812,1,Ecole maternelle Marcel Pagnol,43.5940191,3.8655185,10410,#EDUCATION#ECOLE#PRIMAIRE,Rue Georges Brassens,34000,MONTPELLIER,Ecole maternelle Marcel-Pagnol,Ecoles maternelles,Croix d'Argent,04 67 27 53 78,,,,,NULL,NULL,305,NULL,rue Georges-Brassens,NULL,,34070,Montpellier,,,,,,,NULL,,,,NULL
699582,225,,583270711,1,Ecole Élémentaire Georges Simenon,43.5949977,3.8707899,10410,#EDUCATION#ECOLE#PRIMAIRE,Boulevard Pedro de Luna,34000,MONTPELLIER,Ecole Élémentaire Georges Simenon,Ecoles Élémentaires,Croix d'Argent,04 67 42 47 20,,,,,NULL,NULL,215,NULL,boulevard Pédro de Luna,NULL,,34070,Montpellier,,,,,,,NULL,,,<p>Â </p>,NULL
699534,221,,584005486,1,Ecole maternelle Robert Surcouf,43.5950436,3.870633,10410,#EDUCATION#ECOLE#PRIMAIRE,Boulevard Pedro de Luna,34000,MONTPELLIER,Ecole maternelle Robert-Surcouf,Ecoles maternelles,Croix d'Argent,04 67 42 45 23,,,,,NULL,NULL,215,NULL,boulevard Pédro-de-Luna,NULL,,34070,Montpellier,,,,,,,NULL,,,,NULL
699508,226,,75753296,2,Ecole Élémentaire Voltaire,43.595349024662,3.86360298108745,10410,#EDUCATION#ECOLE#PRIMAIRE,Rue Henri Sellier,34000,MONTPELLIER,Ecole Élémentaire Voltaire,Ecoles Élémentaires,Croix d'Argent,04 67 47 19 65,,,,,NULL,NULL,157,NULL,rue Henri Sellier,NULL,,34070,Montpellier,,,,,,,NULL,,,<p>Â </p>,NULL
699351,134,,608282503,1,Ecole Élémentaire Charles Dickens,43.5964817,3.8920328,10410,#EDUCATION#ECOLE#PRIMAIRE,Avenue du Pont Trinquat,34000,MONTPELLIER,Ecole Élémentaire Charles Dickens,Ecoles Élémentaires,Prés d'Arênes,04 67 65 47 86,,,,,NULL,NULL,686,NULL,avenue du pont Trinquat,NULL,,34000,Montpellier,,,,,,,NULL,,,<p>Â </p>,NULL
699373,217,,608520639,1,Ecole maternelle Hélène Boucher,43.596559,3.8397273,10410,#EDUCATION#ECOLE#PRIMAIRE,"240, quai Flora Tristan",34000,MONTPELLIER,Ecole maternelle Hélène-Boucher,Ecoles maternelles,Croix d'Argent,04 67 42 52 84,,,,,NULL,NULL,240,NULL,quai Flora-Tristan,NULL,,34070,Montpellier,,,,,,,NULL,,,,NULL
699403,476,,608284568,1,Ecole maternelle Anne Frank,43.596606,3.891786,10410,#EDUCATION#ECOLE#PRIMAIRE,Avenue du Pont Trinquat,34000,MONTPELLIER,Ecole maternelle Anne-Frank,Ecoles maternelles,Prés d'Arênes,04 67 65 47 82,,,,,NULL,NULL,686,NULL,avenue du Pont Trinquat,NULL,,34000,Montpellier,,,,,,,NULL,,,,NULL
699833,224,,390744552,1,Ecole Élémentaire Alain Savary,43.59677,3.8393763,10410,#EDUCATION#ECOLE#PRIMAIRE,"240, quai Flora Tristan",34000,MONTPELLIER,Ecole Élémentaire Alain Savary,Ecoles Élémentaires,Croix d'Argent,04 67 42 02 57,,,,,NULL,NULL,240,NULL,quai Flora Tristan,NULL,,34070,Montpellier,,,,,,,NULL,,,<p>Â </p>,NULL
699696,478,,348426092,1,Ecole Élémentaire Jacques Brel,43.5980265,3.8816286,10410,#EDUCATION#ECOLE#PRIMAIRE,"5, impasse des Marmousets",34000,MONTPELLIER,Ecole Élémentaire Jacques Brel,Ecoles Élémentaires,Prés d'Arênes,04 67 64 08 74,,,,,NULL,NULL,5,NULL,impasse des Marmousets,NULL,,34000,Montpellier,,,,,,,NULL,,,<p>Â </p>,NULL
699701,477,,348425784,1,Ecole maternelle Simone Signoret,43.5983869,3.8818174,10410,#EDUCATION#ECOLE#PRIMAIRE,"1, impasse des Marmousets",34000,MONTPELLIER,Ecole maternelle Simone-Signoret,Ecoles maternelles,Prés d'Arênes,04 67 64 08 73,,,,,NULL,NULL,1,NULL,impasse des Marmousets,NULL,,34000,Montpellier,,,,,,,NULL,,,,NULL
699581,219,,591580695,1,Ecole maternelle Marceline Desbordes-Valmore,43.5996216,3.8550292,10410,#EDUCATION#ECOLE#PRIMAIRE,Rue du Lavandin,34000,MONTPELLIER,Ecole maternelle Marcelline Desbordes-Valmore,Ecoles maternelles,Croix d'Argent,04 67 42 63 15,,,,,NULL,NULL,460,NULL,rue du Lavandin,NULL,,34070,Montpellier,,,,,,,NULL,,,,NULL
699480,38,,591565284,1,Ecole Élémentaire Winston Churchill,43.5996726,3.8547615,10410,#EDUCATION#ECOLE#PRIMAIRE,Rue du Lavandin,34000,MONTPELLIER,Ecole Élémentaire Winston Churchill,Ecoles Élémentaires,Croix d'Argent,04 67 42 54 64,,,,,NULL,NULL,424,NULL,rue du lavandin,NULL,,34070,Montpellier,,,,,,,NULL,,,<p>Â </p>,NULL
699468,222,,608518315,1,Ecole Élémentaire Marie Curie,43.6001097,3.8691672,10410,#EDUCATION#ECOLE#PRIMAIRE,Allée des Sophoras,34000,MONTPELLIER,Ecole Élémentaire Marie Curie,Ecoles Élémentaires,Croix d'Argent,04 67 42 52 54,,,,,NULL,NULL,6,NULL,Allée des Sophoras,NULL,,34070,Montpellier,,,,,,,NULL,,,<p>Â </p>,NULL
699349,37,,608518314,1,Ecole maternelle Alphonse Daudet,43.6003972,3.8686308,10410,#EDUCATION#ECOLE#PRIMAIRE,Allée des Sophoras,34000,MONTPELLIER,Ecole maternelle Alphonse-Daudet,Ecoles maternelles,Croix d'Argent,04 67 42 42 84,,,,,NULL,NULL,2,NULL,Allée des Sophoras,NULL,,34070,Montpellier,,,,,,,NULL,,,,NULL
699664,39,,608523753,1,Ecole Élémentaire Victor Schoelcher,43.6004676,3.8460693,10410,#EDUCATION#ECOLE#PRIMAIRE,Rue Robespierre,34000,MONTPELLIER,Ecole Élémentaire Victor Schoelcher,Ecoles Élémentaires,Croix d'Argent,04 67 42 69 66,,,,,NULL,NULL,65,NULL,rue Robespierre,NULL,,34070,Montpellier,,,,,,,NULL,,,<p>Â </p>,NULL
699580,218,,595256343,1,Ecole maternelle Lily Boulanger,43.6007355,3.8459627,10410,#EDUCATION#ECOLE#PRIMAIRE,Rue Robespierre,34000,MONTPELLIER,Ecole maternelle Lily-Boulanger,Ecoles maternelles,Croix d'Argent,04 67 42 77 40,,,,,NULL,NULL,25,NULL,rue Robespierre,NULL,,34070,Montpellier,,,,,,,NULL,,,,NULL
699378,216,,444833667,1,Ecole maternelle Ludwig Van Beethoven,43.5846811,3.8565067,10410,#EDUCATION#ECOLE#PRIMAIRE,Chemin de Poutingon,34000,MONTPELLIER,Ecole maternelle Ludwig-Van-Beethoven,Ecoles maternelles,Croix d'Argent,04 67 27 66 71,,,,,NULL,NULL,381,NULL,chemin de Poutingon,NULL,,34070,Montpellier,,,,,,,NULL,,,<p>Â </p>,NULL
699712,36,,606179393,1,Ecole maternelle Aliénor d'Aquitaine,43.5884994,3.8645269,10410,#EDUCATION#ECOLE#PRIMAIRE,Rue Jacques Bounin,34000,MONTPELLIER,Ecole maternelle Aliénor-d'Aquitaine,Ecoles maternelles,Croix d'Argent,04 67 27 46 12,,,,,NULL,NULL,694,NULL,rue Jacques-Bounin,NULL,,34070,Montpellier,,,,,,,NULL,,,,NULL
699546,341,,256110421,1,Ecole Élémentaire Paul Bert - Victor Hugo,43.6039524,3.8816405,10410,#EDUCATION#ECOLE#PRIMAIRE,Rue du Général Riu,34000,MONTPELLIER,Ecole Élémentaire Paul Bert- Victor Hugo,Ecoles Élémentaires,Montpellier Centre,04 67 65 64 80,,,,,NULL,NULL,19,NULL,rue du Général Riu,NULL,,34000,Montpellier,,,,,,,NULL,,,<p>Â </p>,NULL
699605,312,,281251004,1,Ecole maternelle Geneviève de Gaulle Anthonioz,43.604077,3.8941356,10410,#EDUCATION#ECOLE#PRIMAIRE,Chemin des Barques,34000,MONTPELLIER,,,,,,,,,,,,,,,,,,,,,,,,,,,,
699705,384,,256110262,1,Ecole maternelle Louis Figuier,43.6041155,3.8818535,10410,#EDUCATION#ECOLE#PRIMAIRE,Rue Farges,34000,MONTPELLIER,Ecole maternelle Louis-Figuier,Ecoles maternelles,Montpellier Centre,04 67 65 64 89,,,,,NULL,NULL,14,NULL,rue Farges,NULL,,34000,Montpellier,,,,,,,NULL,,,,NULL
699778,438,,608526264,1,Ecole maternelle Michel de l'Hospital,43.6041502,3.9075348,10410,#EDUCATION#ECOLE#PRIMAIRE,Route de Vauguières,34000,MONTPELLIER,Ecole maternelle Michel De L'Hospital,Ecoles maternelles,Port Marianne,04 99 64 27 47,,,,,NULL,NULL,380,NULL,route de Vauguières,NULL,,34000,Montpellier,,,,,,,NULL,,,<p>Â Ouverture rentrée 2007/2008</p>,NULL
699544,440,,265385860,1,Ecole Élémentaire Jean Jaurès,43.6041773,3.8945028,10410,#EDUCATION#ECOLE#PRIMAIRE,Chemin des Barques,34000,MONTPELLIER,Ecole Élémentaire Jean Jaurès,Ecoles Élémentaires,Port Marianne,04 99 92 22 46,,,,,NULL,NULL,12,NULL,chemin des Barques,NULL,,34000,Montpellier,,,,,,,NULL,,,<p>Â </p>,NULL
699569,168,,598499832,1,Ecole Élémentaire Sun Yat Sen,43.6041894,3.8435742,10410,#EDUCATION#ECOLE#PRIMAIRE,Rue de la Croix de Figuerolles,34000,MONTPELLIER,Ecole Élémentaire Sun Yat Sen,Ecoles Élémentaires,Les Cévennes,04 67 75 58 32,,,,,NULL,NULL,803,NULL,rue de la Croix de Figuerolles,NULL,,34070,Montpellier,,,,,,,NULL,,,<p>Â </p>,NULL
699622,422,,598499573,1,Ecole Élémentaire Dante Alighieri,43.6041895,3.843381,10410,#EDUCATION#ECOLE#PRIMAIRE,Rue de la Croix de Figuerolles,34000,MONTPELLIER,Ecole Élémentaire Dante Alighieri,Ecoles Élémentaires,Les Cévennes,04 67 75 64 98,,,,,NULL,NULL,759,NULL,rue de la Croix de Figuerolles,NULL,,34070,Montpellier,,,,,,,NULL,,,<p>Â </p>,NULL
699721,113,,598500036,1,Ecole maternelle Maria Callas,43.6042127,3.8429949,10410,#EDUCATION#ECOLE#PRIMAIRE,Rue de la Croix de Figuerolles,34000,MONTPELLIER,Ecole maternelle Maria-Callas,Ecoles maternelles,Les Cévennes,04 67 75 56 55,,,,,NULL,NULL,843,NULL,rue de la Croix de Figuerolles,NULL,,34070,Montpellier,,,,,,,NULL,,,,NULL
699418,385,,305365764,1,Ecole maternelle Anatole France,43.6045839,3.8759627,10410,#EDUCATION#ECOLE#PRIMAIRE,Rue du Général Lafon,34000,MONTPELLIER,Ecole maternelle Anatole-France,Ecoles maternelles,Montpellier Centre,04 67 92 02 96,,,,,NULL,NULL,10,NULL,rue du Général Lafon,NULL,,34000,Montpellier,,,,,,,NULL,,,,NULL
699450,436,,,1,Ecole maternelle Geneviève Antonioz de Gaulle,43.6046398222888,3.89406074535485,10410,#EDUCATION#ECOLE#PRIMAIRE,Chemin des Barques,34000,MONTPELLIER,Ecole maternelle Geneviève de Gaulle Anthonioz,Ecoles maternelles,Montpellier Centre,04 99 92 21 70,,,,,NULL,NULL,10,NULL,chemin des Barques,NULL,,34000,Montpellier,,,,,,,NULL,,,<p>Â </p>,NULL
699706,100,,592107227,1,Ecole maternelle Florian,43.6048771,3.8865398,10410,#EDUCATION#ECOLE#PRIMAIRE,Rue de la Méditerranée,34000,MONTPELLIER,Ecole maternelle Pierre-Claris-de-Florian,Ecoles maternelles,Montpellier Centre,04 67 65 73 50,,,,,NULL,NULL,49,NULL,rue de la Méditerranée,NULL,,34000,Montpellier,,,,,,,NULL,,,,NULL
699681,158,,592107234,1,Ecole Élémentaire Jules Simon,43.6049895,3.8858817,10410,#EDUCATION#ECOLE#PRIMAIRE,Rue de la Méditerranée,34000,MONTPELLIER,Ecole Élémentaire Jules Simon,Ecoles Élémentaires,Montpellier Centre,04 67 65 60 54,,,,,NULL,NULL,45,NULL,rue de la Méditerranée,NULL,,34000,Montpellier,,,,,,,NULL,,,<p>Â </p>,NULL
699864,83,,598502312,1,Ecole Élémentaire Frédéric Baille,43.6054333,3.8573707,10410,#EDUCATION#ECOLE#PRIMAIRE,Rue du Mas de Merle,34000,MONTPELLIER,Ecole Élémentaire Frédéric Bazille,Ecoles Élémentaires,Montpellier Centre,04 67 42 67 64,,,,,NULL,NULL,146,NULL,rue du Mas de Merle,NULL,,34070,Montpellier,,,,,,,NULL,,,<p>Â </p>,NULL
699476,157,,27817529,2,Ecole Élémentaire Sévigné,43.6060008863789,3.86956890718262,10410,#EDUCATION#ECOLE#PRIMAIRE,Rue Bernard de Tréviers,34000,MONTPELLIER,Ecole Élémentaire Sévigné,Ecoles Élémentaires,Montpellier Centre,04 67 92 35 48,,,,,NULL,NULL,5,NULL,rue Bernard de Tréviers,NULL,,34000,Montpellier,,,,,,,NULL,,,<p>Â </p>,NULL
699773,339,,608523539,1,Ecole maternelle Docteur Roux,43.6060536,3.8619587,10410,#EDUCATION#ECOLE#PRIMAIRE,Rue du Faubourg de Figuerolles,34000,MONTPELLIER,Ecole maternelle Docteur Roux,Ecoles maternelles,Montpellier Centre,04 67 92 35 40,,,,,NULL,NULL,96,NULL,rue du Faubourg Figuerolles,NULL,,34000,Montpellier,,,,,,,NULL,,,,NULL
699567,101,,608519173,1,Ecole maternelle Francis Garnier,43.6075214,3.8718494,10410,#EDUCATION#ECOLE#PRIMAIRE,Rue du Général René,34000,MONTPELLIER,Ecole maternelle Francis-Garnier,Ecoles maternelles,Montpellier Centre,04 67 92 35 42,,,,,NULL,NULL,2,NULL,rue Général-René,NULL,,34000,Montpellier,,,,,,,NULL,,,<p>Â </p>,NULL
699482,344,,608519174,1,Ecole Élémentaire Léon Gambetta,43.6076612,3.8711735,10410,#EDUCATION#ECOLE#PRIMAIRE,Rue des Soldats,34000,MONTPELLIER,Ecole Élémentaire Gambetta,Ecoles Élémentaires,Montpellier Centre,04 67 92 35 53,,,,,NULL,NULL,20,NULL,rue des soldats,NULL,,34000,Montpellier,,,,,,,NULL,,,<p>Â </p>,NULL
699847,167,,608496827,1,Ecole Élémentaire Spinoza,43.6083587,3.8371819,10410,#EDUCATION#ECOLE#PRIMAIRE,Rue Viollet le Duc,34000,MONTPELLIER,Ecole Élémentaire Spinoza,Ecoles Élémentaires,Les Cévennes,04 67 75 34 63,,,,,NULL,NULL,110,NULL,rue Viollet-Le-Duc,NULL,,34070,Montpellier,,,,,,,NULL,,,,NULL
699620,418,,608496820,1,Ecole maternelle Jeanne Deroin,43.6084519,3.8366884,10410,#EDUCATION#ECOLE#PRIMAIRE,Rue Viollet le Duc,34000,MONTPELLIER,Ecole maternelle Jeanne-Deroin,Ecoles maternelles,Les Cévennes,04 67 75 59 85,,,,,NULL,NULL,88,NULL,rue Viollet le Duc,NULL,,34070,Montpellier,,,,,,,NULL,,,,NULL
699685,348,,267929290,1,Ecole Élémentaire Périclès,43.6087254,3.888998,10410,#EDUCATION#ECOLE#PRIMAIRE,Boulevard d'Antigone,34000,MONTPELLIER,Ecole Élémentaire Péricles,Ecoles Élémentaires,Montpellier Centre,04 67 65 49 69,,,,,NULL,NULL,528,NULL,boulevard d'Antigone,NULL,,34000,Montpellier,,,,,,,NULL,,,<p>Â </p>,NULL
699393,381,,595137310,1,Ecole maternelle Aristote,43.6087644,3.8884391,10410,#EDUCATION#ECOLE#PRIMAIRE,Boulevard d'Antigone,34000,MONTPELLIER,Ecole maternelle Aristote,Ecoles maternelles,Montpellier Centre,04 67 65 49 03,,,,,NULL,NULL,446,NULL,boulevard d'Antigone,NULL,,34000,Montpellier,,,,,,,NULL,,,,NULL
699844,102,,265089228,1,Ecole maternelle Louis Pasteur,43.6092187,3.8735958,10410,#EDUCATION#ECOLE#PRIMAIRE,Rue Saint-Sépulcre,34000,MONTPELLIER,Ecole maternelle Louis-Pasteur,Ecoles maternelles,Montpellier Centre,04 67 60 64 96,,,,,NULL,NULL,15,NULL,rue Saint Sépulcre,NULL,,34000,Montpellier,,,,,,,NULL,,,,NULL
699542,345,,590279400,1,Ecole Élémentaire Alphonse de Lamartine,43.6093547,3.8737942,10410,#EDUCATION#ECOLE#PRIMAIRE,Rue de la Valfère,34000,MONTPELLIER,Ecole Élémentaire Lamartine,Ecoles Élémentaires,Montpellier Centre,04 67 60 62 05,,,,,NULL,NULL,30,NULL,rue de la Valfére,NULL,,34000,Montpellier,,,,,,,NULL,,,<p>Â </p>,NULL
699752,439,,608532463,1,Ecole maternelle Louise Michel,43.6100543,3.898469,10410,#EDUCATION#ECOLE#PRIMAIRE,Avenue de la Pompignane,34000,MONTPELLIER,Ecole maternelle Louise-Michel,Ecoles maternelles,Port Marianne,04 67 65 73 72,,,,,NULL,NULL,501,NULL,avenue de la Pompignane,NULL,,34000,Montpellier,,,,,,,NULL,,,,NULL
699676,342,,590333691,1,Ecole Élémentaire Auguste Comte,43.6100642,3.8685338,10410,#EDUCATION#ECOLE#PRIMAIRE,Rue Émile Zola,34000,MONTPELLIER,Ecole Élémentaire Auguste Comte,Ecoles Élémentaires,Montpellier Centre,04 67 92 35 52,,,,,NULL,NULL,2,NULL,rue Emile Zola,NULL,,34000,Montpellier,,,,,,,NULL,,,<p>Â </p>,NULL
699623,441,,608532460,1,Ecole Élémentaire Paul Painlevé,43.6102874,3.8983831,10410,#EDUCATION#ECOLE#PRIMAIRE,Avenue de la Pompignane,34000,MONTPELLIER,Ecole Élémentaire Painlevé,Ecoles Élémentaires,Port Marianne,04 67 65 85 35,,,,,NULL,NULL,501,NULL,avenue de la Pompignane,NULL,,34000,Montpellier,,,,,,,NULL,,,<p>Â </p>,NULL
699357,166,,608522782,1,Ecole Élémentaire Paul Langevin,43.6106525,3.8541696,10410,#EDUCATION#ECOLE#PRIMAIRE,Rue de Clémentville,34000,MONTPELLIER,Ecole Élémentaire Paul Langevin,Ecoles Élémentaires,Les Cévennes,04 67 92 85 70,,,,,NULL,NULL,5,NULL,rue de Clémentville,NULL,,34000,Montpellier,,,,,,,NULL,,,<p>Â </p>,NULL
699400,420,,608522781,1,Ecole maternelle Goethe,43.610971,3.8533863,10410,#EDUCATION#ECOLE#PRIMAIRE,Rue des Coronilles,34000,MONTPELLIER,Ecole maternelle Johann Wolfgang Von Goethe,Ecoles maternelles,Les Cévennes,04 67 92 75 38,,,,,NULL,NULL,3,NULL,rue des Coronilles,NULL,,34000,Montpellier,,,,,,,NULL,,,<p>Â </p>,NULL
699718,46,,,1,Ecole maternelle Yourcenar/Mitterrand,43.6112423,3.8767336,10410,#EDUCATION#ECOLE#PRIMAIRE,"71, rue Jean-Joseph Labade",34000,MONTPELLIER,,,,,,,,,,,,,,,,,,,,,,,,,,,,
699811,383,,598188508,1,Ecole maternelle Chaptal,43.6113866,3.8660972,10410,#EDUCATION#ECOLE#PRIMAIRE,Boulevard des Arceaux,34000,MONTPELLIER,Ecole maternelle Chaptal,Ecoles maternelles,Montpellier Centre,04 67 92 35 43,,,,,NULL,NULL,9,NULL,boulevard des Arceaux,NULL,,34000,Montpellier,,,,,,,NULL,,,,NULL
699680,340,,310242786,1,Ecole Élémentaire Jeanne d'Arc,43.6113904,3.8659739,10410,#EDUCATION#ECOLE#PRIMAIRE,Boulevard des Arceaux,34000,MONTPELLIER,Ecole Élémentaire Jeanne d'Arc,Ecoles Élémentaires,Montpellier Centre,04 67 92 35 72,,,,,NULL,NULL,9,NULL,boulevard des Arceaux,NULL,,34000,Montpellier,,,,,,,NULL,,,<p>Â </p>,NULL
699628,437,,608517230,1,Ecole maternelle Sarah Bernhardt,43.6115455,3.9077449,10410,#EDUCATION#ECOLE#PRIMAIRE,"175, rue Villalonga",34000,MONTPELLIER,Ecole maternelle Sarah-Bernhardt,Ecoles maternelles,Port Marianne,04 67 22 39 12,,,,,NULL,NULL,175,NULL,Rue Villalonga,NULL,,34000,Montpellier,,,,,,,NULL,,,,NULL
699401,442,,590377000,1,Ecole Élémentaire Blaise Pascal,43.6120349,3.9074552,10410,#EDUCATION#ECOLE#PRIMAIRE,Rue Louis Lépine,34000,MONTPELLIER,Ecole Élémentaire Blaise Pascal,Ecoles Élémentaires,Port Marianne,04 67 22 11 72,,,,,NULL,NULL,100,NULL,rue Louis Lépine,NULL,,34000,Montpellier,,,,,,,NULL,,,<p>Â </p>,NULL
699687,390,,579713305,1,Ecole maternelle Jean-Jacques Rousseau,43.6124586,3.8760698,10410,#EDUCATION#ECOLE#PRIMAIRE,Rue d'Aigrefeuille,34000,MONTPELLIER,Ecole maternelle Jean-Jacques-Rousseau,Ecoles maternelles,Montpellier Centre,04 67 60 61 94,,,,,NULL,NULL,21,NULL,rue d'Aigrefeuille,NULL,,34000,Montpellier,,,,,,,NULL,,,,NULL
699539,498,,608493978,1,Ecole Élémentaire Léo Mallet,43.6126001,3.8312381,10410,#EDUCATION#ECOLE#PRIMAIRE,Allée Pierre Carabasse,34000,MONTPELLIER,Ecole Élémentaire Léo Malet,Ecoles Élémentaires,Mosson,04 67 75 46 45,,,,,NULL,NULL,5,NULL,Allée Pierre Carabasse,NULL,,34080,Montpellier,,,,,,,NULL,,,<p>Â </p>,NULL
699500,78,,608492863,1,Ecole maternelle Pape Carpantier,43.6137031,3.8276332,10410,#EDUCATION#ECOLE#PRIMAIRE,Rue des Écoles,34000,MONTPELLIER,Ecole maternelle Marie-Pape-Carpantier,Ecoles maternelles,Mosson,04 67 75 25 35,,,,,NULL,NULL,12,NULL,rue des Ecoles,NULL,,34080,Montpellier,,,,,,,NULL,,,,NULL
699750,386,,23124915,2,Ecole maternelle Vasco de Gama,43.61405393211,3.8921464268701,10410,#EDUCATION#ECOLE#PRIMAIRE,Rue de la Croix du Sud,34000,MONTPELLIER,Ecole maternelle Vasco-de-Gama,Ecoles maternelles,Montpellier Centre,04 67 65 04 92,,,,,NULL,NULL,156,NULL,rue de la Croix du sud,NULL,,34000,Montpellier,,,,,,,NULL,,,,NULL
699348,85,,23124914,2,Ecole Élémentaire Jean Mermoz,43.6144863096747,3.89243791999973,10410,#EDUCATION#ECOLE#PRIMAIRE,Rue de la Croix du Sud,34000,MONTPELLIER,Ecole Élémentaire Jean Mermoz,Ecoles Élémentaires,Montpellier Centre,04 67 65 04 66,,,,,NULL,NULL,196,NULL,rue de la Croix du Sud,NULL,,34000,Montpellier,,,,,,,NULL,,,<p>Â </p>,NULL
699398,388,,598107468,1,Ecole maternelle Jean de la Fontaine,43.6154069,3.8785449,10410,#EDUCATION#ECOLE#PRIMAIRE,Quai des Tanneurs,34000,MONTPELLIER,Ecole maternelle Jean-de-la-Fontaine,Ecoles maternelles,Montpellier Centre,04 67 72 35 57,,,,,NULL,NULL,27,NULL,quai des Taneurs,NULL,,34000,Montpellier,,,,,,,NULL,,,,NULL
699571,421,,608503044,1,Ecole maternelle Jules Michelet,43.615692,3.8388259,10410,#EDUCATION#ECOLE#PRIMAIRE,Rue des Araucarias,34000,MONTPELLIER,Ecole maternelle Jules-Michelet,Ecoles maternelles,Les Cévennes,04 67 10 06 05,,,,,NULL,NULL,,NULL,Rue des Araucarias,NULL,,34080,Montpellier,,,,,,,NULL,,,,NULL
699625,425,,608503040,1,Ecole Élémentaire Joseph Delteil,43.6159871,3.8392014,10410,#EDUCATION#ECOLE#PRIMAIRE,Rue des Araucarias,34000,MONTPELLIER,Ecole Élémentaire Joseph Delteil,Ecoles Élémentaires,Les Cévennes,04 67 10 05 76,,,,,NULL,NULL,,NULL,Rue des Araucarias,NULL,,34080,Montpellier,,,,,,,NULL,,,,NULL
699684,346,,361463688,1,Ecole Élémentaire Berthe Morisot,43.6167403,3.8621432,10410,#EDUCATION#ECOLE#PRIMAIRE,Avenue d'Assas,34000,MONTPELLIER,Ecole Élémentaire Berthe Morisot,Ecoles Élémentaires,Montpellier Centre,04 67 63 03 37,,,,,NULL,NULL,60,NULL,avenue d'Assas,NULL,,34000,Montpellier,,,,,,,NULL,,,,NULL
699498,114,,592089414,1,Ecole maternelle Rudyard Kipling,43.6168057,3.8460697,10410,#EDUCATION#ECOLE#PRIMAIRE,Avenue de Saint Clément,34000,MONTPELLIER,Ecole maternelle Rudyard-Kipling,Ecoles maternelles,Les Cévennes,04 67 63 09 65,,,,,NULL,NULL,311,NULL,avenue Saint Clément,NULL,,34000,Montpellier,,,,,,,NULL,,,,NULL
699694,423,,592091165,1,Ecole Élémentaire Charles Baudelaire,43.6169222,3.8458874,10410,#EDUCATION#ECOLE#PRIMAIRE,Avenue de Saint Clément,34000,MONTPELLIER,Ecole Élémentaire Charles Baudelaire,Ecoles Élémentaires,Les Cévennes,04 67 63 08 53,,,,,NULL,NULL,311,NULL,avenue Saint-Clément,NULL,,34000,Montpellier,,,,,,,NULL,,,,NULL
699563,343,,595253605,1,Ecole Élémentaire Condorcet,43.616961,3.8742275,10410,#EDUCATION#ECOLE#PRIMAIRE,Rue du Faubourg Boutonnet,34000,MONTPELLIER,Ecole Élémentaire Condorcet,Ecoles Élémentaires,Montpellier Centre,04 67 63 19 98,,,,,NULL,NULL,13,NULL,rue du Faubourg Boutonnet,NULL,,34000,Montpellier,,,,,,,NULL,,,<p>Â </p>,NULL
699702,389,,361463687,1,Ecole maternelle Wolfgang Amadeus Mozart,43.6170037,3.8615996,10410,#EDUCATION#ECOLE#PRIMAIRE,Avenue d'Assas,34000,MONTPELLIER,Ecole maternelle Mozart,Ecoles maternelles,Montpellier Centre,04 67 63 15 61,,,,,NULL,NULL,60,NULL,avenue d'Assas,NULL,,34000,Montpellier,,,,,,,NULL,,,,NULL
699678,159,,185546655,1,Ecole Élémentaire Jules Verne,43.6170418,3.8841532,10410,#EDUCATION#ECOLE#PRIMAIRE,Rue Yehudi Menuhin,34000,MONTPELLIER,Ecole Élémentaire Jules Verne,Ecoles Élémentaires,Montpellier Centre,04 99 62 38 84,,,,,NULL,NULL,127,NULL,rue Yehudi Menuhin,NULL,,34000,Montpellier,,,,,,,NULL,,,<p>Â </p>,NULL
699501,115,,608482967,1,Ecole Élémentaire Louis Armstrong,43.6173464,3.8386472,10410,#EDUCATION#ECOLE#PRIMAIRE,Rue Paul Rimbaud,34000,MONTPELLIER,Ecole Élémentaire Louis Armstrong,Ecoles Élémentaires,Les Cévennes,04 67 75 61 77,,,,,NULL,NULL,971,NULL,rue Paul Rimbaud,NULL,,34080,Montpellier,,,,,,,NULL,,,<p>Â </p>,NULL
699618,416,,608482957,1,Ecole maternelle Geneviève Bon,43.6175173,3.8392051,10410,#EDUCATION#ECOLE#PRIMAIRE,Rue Paul Rimbaud,34000,MONTPELLIER,Ecole maternelle Geneviève-Bon,Ecoles maternelles,Les Cévennes,04 67 75 02 34,,,,,NULL,NULL,971,NULL,rue Paul-Rimbaud,NULL,,34080,Montpellier,,,,,,,NULL,,,,NULL
699700,347,,22940828,2,Ecole Élémentaire Jean Moulin,43.6187193503604,3.8914676038121,10410,#EDUCATION#ECOLE#PRIMAIRE,"20, bd Mounié",34000,MONTPELLIER,Ecole Élémentaire Jean Moulin,Ecoles Élémentaires,Montpellier Centre,04 67 72 68 17,,,,,NULL,NULL,20,NULL,boulevard Mounié,NULL,,34000,Montpellier,,,,,,,NULL,,,<p>Â </p>,NULL
699347,122,,601563359,1,Ecole Élémentaire Jean Zay,43.618781,3.8977974,10410,#EDUCATION#ECOLE#PRIMAIRE,Avenue Alphonse Juin,34000,MONTPELLIER,Ecole Élémentaire Jean Zay,Ecoles Élémentaires,Port Marianne,04 67 02 66 36,,,,,NULL,NULL,85,NULL,avenue Alphonse Juin,NULL,,34000,Montpellier,,,,,,,NULL,,,,NULL
699810,382,,22940825,2,Ecole maternelle Ingrid Bergman,43.6188130671671,3.89100567315101,10410,#EDUCATION#ECOLE#PRIMAIRE,"20, bd Mounié",34000,MONTPELLIER,Ecole maternelle Ingrid Bergman,Ecoles maternelles,Montpellier Centre,04 67 72 35 58,,,,,NULL,NULL,20,NULL,boulevard Mounié,NULL,,34000,Montpellier,,,,,,,NULL,,,,NULL
699772,121,,601564168,1,Ecole maternelle Sergueà¯ Prokofiev,43.6188898,3.8983123,10410,#EDUCATION#ECOLE#PRIMAIRE,Avenue Alphonse Juin,34000,MONTPELLIER,Ecole maternelle Sergueà¯-Prokofiev,Ecoles maternelles,Port Marianne,04 67 02 66 35,,,,,NULL,NULL,85,NULL,avenue Alphonse-Juin,NULL,,34000,Montpellier,,,,,,,NULL,,,,NULL
699545,116,,592097188,1,Ecole Élémentaire Julie Daubié,43.6194844,3.8424132,10410,#EDUCATION#ECOLE#PRIMAIRE,Allée de l'Aqueduc,34000,MONTPELLIER,Ecole Élémentaire Julie Daubie,Ecoles Élémentaires,Les Cévennes,04 67 63 01 26,,,,,NULL,NULL,183,NULL,Allée de l'Aqueduc,NULL,,34080,Montpellier,,,,,,,NULL,,,<p>Â </p>,NULL
699619,417,,592097195,1,Ecole maternelle Madeleine Brès,43.6197873,3.8417265,10410,#EDUCATION#ECOLE#PRIMAIRE,Allée de l'Aqueduc,34000,MONTPELLIER,Ecole maternelle Madeleine-Bres,Ecoles maternelles,Les Cévennes,04 67 63 01 19,,,,,NULL,NULL,183,NULL,Allée de l'Aqueduc,NULL,,34080,Montpellier,,,,,,,NULL,,,,NULL
699566,84,,595229398,1,Ecole Élémentaire Charles Daviler,43.6220975,3.8700552,10410,#EDUCATION#ECOLE#PRIMAIRE,Rue du Colonel Marchand,34000,MONTPELLIER,Ecole Élémentaire Charles Daviler,Ecoles Élémentaires,Montpellier Centre,04 67 63 52 50,,,,,NULL,NULL,5,NULL,rue Colonel Marchand,NULL,,34000,Montpellier,,,,,,,NULL,,,<p>Â </p>,NULL
699757,387,,598177163,1,Ecole maternelle Pauline Kergomard,43.6221832,3.8703673,10410,#EDUCATION#ECOLE#PRIMAIRE,Rue du Colonel Marchand,34000,MONTPELLIER,Ecole maternelle Pauline-Kergomard,Ecoles maternelles,Montpellier Centre,04 67 63 33 71,,,,,NULL,NULL,5,NULL,rue Colonel Marchand,NULL,,34000,Montpellier,,,,,,,NULL,,,<p>Â </p>,NULL
699695,424,,601530050,1,Ecole Élémentaire Emile Combes,43.622777,3.8407087,10410,#EDUCATION#ECOLE#PRIMAIRE,Rue Edmond Lautard,34000,MONTPELLIER,Ecole Élémentaire Emile Combes,Ecoles Élémentaires,Les Cévennes,04 67 63 28 45,,,,,NULL,NULL,20,NULL,rue Edmond Lautard,NULL,,34081,Montpellier,,,,,,,NULL,,,<p>Â </p>,NULL
699621,419,,601530049,1,Ecole maternelle Victor Duruy,43.6229323,3.8406872,10410,#EDUCATION#ECOLE#PRIMAIRE,Rue Edmond Lautard,34000,MONTPELLIER,Ecole maternelle Victor-Duruy,Ecoles maternelles,Les Cévennes,04 67 63 73 90,,,,,NULL,NULL,20,NULL,rue Edmond Lautard,NULL,,34080,Montpellier,,,,,,,NULL,,,,NULL
699748,329,,590320614,1,Ecole maternelle Pablo Neruda,43.6230508,3.8184711,10410,#EDUCATION#ECOLE#PRIMAIRE,Rue de Salamanque,34000,MONTPELLIER,Ecole maternelle Pablo-Neruda,Ecoles maternelles,Mosson,04 67 75 42 26,,,,,NULL,NULL,53,NULL,rue de Salamanque,NULL,,34080,Montpellier,,,,,,,NULL,,,,NULL
699656,81,,598501506,1,Ecole Élémentaire Simon Bolivar,43.623245,3.8176622,10410,#EDUCATION#ECOLE#PRIMAIRE,Avenue de Barcelone,34000,MONTPELLIER,Ecole Élémentaire Simon Bolivar,Ecoles Élémentaires,Mosson,04 67 75 34 69,,,,,NULL,NULL,300,NULL,avenue de Barcelone,NULL,,34080,Montpellier,,,,,,,NULL,,,<p>Â </p>,NULL
699572,334,,590325101,1,Ecole Élémentaire Antoine Balard,43.6235401,3.8185354,10410,#EDUCATION#ECOLE#PRIMAIRE,Rue de Salamanque,34000,MONTPELLIER,Ecole Élémentaire Antoine Balard,Ecoles Élémentaires,Mosson,04 67 75 43 01,,,,,NULL,NULL,123,NULL,rue de Salamanque,NULL,,34080,Montpellier,,,,,,,NULL,,,<p>Â </p>,NULL
699519,331,,598500219,1,Ecole maternelle Madeleine Renaud,43.6238042,3.817673,10410,#EDUCATION#ECOLE#PRIMAIRE,Avenue de Barcelone,34000,MONTPELLIER,Ecole maternelle Madeleine-Renaud,Ecoles maternelles,Mosson,04 67 75 43 00,,,,,NULL,NULL,360,NULL,avenue de Barcelone,NULL,,34080,Montpellier,,,,,,,NULL,,,,NULL
699499,82,,598498327,1,Ecole Élémentaire Louisville,43.6251808,3.8155755,10410,#EDUCATION#ECOLE#PRIMAIRE,Avenue de Louisville,34000,MONTPELLIER,Ecole Élémentaire Louisville,Ecoles Élémentaires,Mosson,04 67 75 36 01,,,,,NULL,NULL,431,NULL,avenue de Louisville,NULL,,34080,Montpellier,,,,,,,NULL,,,<p>Â </p>,NULL
699518,337,,598497469,1,Ecole Élémentaire Heidelberg,43.6252468,3.8136014,10410,#EDUCATION#ECOLE#PRIMAIRE,Rue de Liège,34000,MONTPELLIER,Ecole Élémentaire Heidelberg,Ecoles Élémentaires,Mosson,04 67 75 42 07,,,,,NULL,NULL,310,NULL,rue de Liège,NULL,,34080,Montpellier,,,,,,,NULL,,,<p>Â </p>,NULL
699719,328,,598498147,1,Ecole maternelle Martin Luther King,43.6253672,3.8153234,10410,#EDUCATION#ECOLE#PRIMAIRE,Rue Charles Bonaparte,34000,MONTPELLIER,Ecole maternelle Martin-Luther-King,Ecoles maternelles,Mosson,04 67 75 35 25,,,,,NULL,NULL,65,NULL,rue Charles-Bonaparte,NULL,,34080,Montpellier,,,,,,,NULL,,,,NULL
699551,282,,598497565,1,Ecole maternelle Cervantes,43.6253789,3.8138428,10410,#EDUCATION#ECOLE#PRIMAIRE,Rue Charles Bonaparte,34000,MONTPELLIER,Ecole maternelle Miguel-de-Cervantès,Ecoles maternelles,Mosson,04 67 75 42 11,,,,,NULL,NULL,91,NULL,rue Charles-Bonaparte,NULL,,34080,Montpellier,,,,,,,NULL,,,,NULL
699493,50,,595150753,1,Ecole maternelle Charlie Chaplin,43.6259647,3.8644375,10410,#EDUCATION#ECOLE#PRIMAIRE,Rue de la Jalade,34000,MONTPELLIER,Ecole maternelle Charlie-Chaplin,Ecoles maternelles,Hôpitaux - Facultés,04 67 63 35 60,,,,,NULL,NULL,120,NULL,rue de la Jalade,NULL,,34090,Montpellier,,,,,,,NULL,,,,NULL
699774,54,,90269821,1,Ecole Élémentaire Sigmund Freud,43.6261169,3.8794493,10410,#EDUCATION#ECOLE#PRIMAIRE,Rue des Tourterelles,34000,MONTPELLIER,Ecole Élémentaire Sigmund Freud,Ecoles Élémentaires,Hôpitaux - Facultés,04 67 72 42 53,,,,,NULL,NULL,2,NULL,rue des Tourterelles,NULL,,34090,Montpellier,,,,,,,NULL,,,"""<blockquote dir=""""ltr"""" style=""""MARGIN-RIGHT: 0px""""><p>Â </p></blockquote>""",NULL
699786,236,,90270740,1,Ecole maternelle Luis de Camoà«ns,43.6264586,3.8800716,10410,#EDUCATION#ECOLE#PRIMAIRE,Rue des Tourterelles,34000,MONTPELLIER,Ecole maternelle Luis-de-Camoens,Ecoles maternelles,Hôpitaux - Facultés,04 67 72 42 54,,,,,NULL,NULL,2,NULL,rue des Tourterelles,NULL,,34090,Montpellier,,,,,,,NULL,,,,NULL
699776,55,,595154632,1,Ecole Élémentaire Eugène Pottier,43.6265161,3.8639225,10410,#EDUCATION#ECOLE#PRIMAIRE,Rue de la Jalade,34000,MONTPELLIER,Ecole Élémentaire Eugène Pottier,Ecoles Élémentaires,Hôpitaux - Facultés,04 67 63 35 68,,,,,NULL,NULL,120,NULL,rue de la Jalade,NULL,,34090,Montpellier,,,,,,,NULL,,,<p>Â </p>,NULL
699543,266,,595157136,1,Ecole Élémentaire Jean Sibélius,43.6266559,3.8637615,10410,#EDUCATION#ECOLE#PRIMAIRE,Rue de la Jalade,34000,MONTPELLIER,Ecole Élémentaire Jean Sibelius,Ecoles Élémentaires,Hôpitaux - Facultés,04 67 63 51 39,,,,,NULL,NULL,120,NULL,rue de la Jalade,NULL,,34090,Montpellier,,,,,,,NULL,,,<p>Â </p>,NULL
699785,140,,595269930,1,Ecole Élémentaire Roosevelt,43.6271641,3.819728,10410,#EDUCATION#ECOLE#PRIMAIRE,Rue de Lausanne,34000,MONTPELLIER,Ecole Élémentaire Roosevelt,Ecoles Élémentaires,Mosson,04 67 75 42 88,,,,,NULL,NULL,25,NULL,rue de Lausanne,NULL,,34080,Montpellier,,,,,,,NULL,,,<p>Â </p>,NULL
699562,332,,595293655,1,Ecole maternelle Vincent Van Gogh,43.6271825,3.8192221,10410,#EDUCATION#ECOLE#PRIMAIRE,Rue d'Oxford,34000,MONTPELLIER,Ecole maternelle Vincent-Van-Gogh,Ecoles maternelles,Mosson,04 67 75 36 46,,,,,NULL,NULL,242,NULL,rue d'Oxford,NULL,,34080,Montpellier,,,,,,,NULL,,,,NULL
699552,327,,598146060,1,Ecole maternelle James Joyce,43.6273677,3.8181963,10410,#EDUCATION#ECOLE#PRIMAIRE,Rue de Bologne,34000,MONTPELLIER,Ecole maternelle James-Joyce,Ecoles maternelles,Mosson,04 67 75 34 87,,,,,NULL,NULL,122,NULL,rue de Bologne,NULL,,34080,Montpellier,,,,,,,NULL,,,,NULL
699832,61,,590302453,1,Ecole Élémentaire André Boulloche,43.6276873,3.8198497,10410,#EDUCATION#ECOLE#PRIMAIRE,Rue de Lausanne,34000,MONTPELLIER,Ecole Élémentaire André  Boulloche,Ecoles Élémentaires,Mosson,04 67 75 37 33,,,,,NULL,NULL,123,NULL,rue de  Lausanne,NULL,,34080,Montpellier,,,,,,,NULL,,,<p>Â </p>,NULL
699483,499,,595266536,1,Ecole Élémentaire Léopold Sédar Senghor,43.6279873,3.818183,10410,#EDUCATION#ECOLE#PRIMAIRE,Rue de Bologne,34000,MONTPELLIER,Ecole Élémentaire Léopold Sedar Senghor,Ecoles Élémentaires,Mosson,04 67 75 34 79,,,,,NULL,NULL,26,NULL,rue de Bologne,NULL,,34080,Montpellier,,,,,,,NULL,,,,NULL
699655,80,,598148476,1,Ecole maternelle Virginia Woolf,43.6281599,3.8194086,10410,#EDUCATION#ECOLE#PRIMAIRE,Rue de Bari,34000,MONTPELLIER,Ecole maternelle Virginia-Woolf,Ecoles maternelles,Mosson,04 67 75 37 34,,,,,NULL,NULL,255,NULL,rue de Bari,NULL,,34080,Montpellier,,,,,,,NULL,,,,NULL
699728,333,,598115061,1,Ecole maternelle Marguerite Yourcenar,43.633904,3.8309689,10410,#EDUCATION#ECOLE#PRIMAIRE,"71, rue Jean-Joseph Laborde",34000,MONTPELLIER,Ecole maternelle Marguerite-Yourcenar,Ecoles maternelles,Hôpitaux - Facultés,04 67 57 06 90,,,,,NULL,NULL,71,NULL,rue Jean Joseph Laborde,NULL,,34000,Montpellier,,,,,,,NULL,,,<p>Â </p>,NULL
699597,268,,598115060,1,Ecole Élémentaire Yourcenar/Mitterrand,43.6340282,3.8308296,10410,#EDUCATION#ECOLE#PRIMAIRE,"71, rue Jean-Joseph Laborde",34000,MONTPELLIER,,,,,,,,,,,,,,,,,,,,,,,,,,,,
699381,269,,26605142,2,Ecole Élémentaire François Rabelais,43.6343715335709,3.82767963569582,10410,#EDUCATION#ECOLE#PRIMAIRE,"48, rue Emmanuelle Here",34000,MONTPELLIER,Ecole Élémentaire François Rabelais,Ecoles Élémentaires,Hôpitaux - Facultés,04 67 61 29 30,,,,,NULL,NULL,48,NULL,rue Emmanuel Here,NULL,,34070,Montpellier,,,,,,,NULL,,,,NULL
699775,254,,244212103,1,Ecole maternelle Térésa,43.636127,3.8738707,10410,#EDUCATION#ECOLE#PRIMAIRE,Rue Antoine-Laurent de Jussieu,34000,MONTPELLIER,Ecole maternelle Teresa,Ecoles maternelles,Hôpitaux - Facultés,04 67 54 65 67,,,,,NULL,NULL,30,NULL,rue Antoine-Laurent-de-Jussieu,NULL,,34090,Montpellier,,,,,,,NULL,,,,NULL
699346,255,,244212101,1,Ecole Élémentaire Jules Ferry,43.6361384,3.8746029,10410,#EDUCATION#ECOLE#PRIMAIRE,Rue Antoine-Laurent de Jussieu,34000,MONTPELLIER,Ecole Élémentaire Jules Ferry,Ecoles Élémentaires,Hôpitaux - Facultés,04 67 54 41 71,,,,,NULL,NULL,88,NULL,rue Antoine-Laurent de Jussieu,NULL,,34090,Montpellier,,,,,,,NULL,,,<p>Â </p>,NULL
699517,336,,74016226,2,Ecole Élémentaire Galilée,43.6379199264582,3.81909262673913,10410,#EDUCATION#ECOLE#PRIMAIRE,Rue Jaufre Rudel,34000,MONTPELLIER,Ecole Élémentaire Galilée,Ecoles Élémentaires,Mosson,04 67 75 34 59,,,,,NULL,NULL,47,NULL,rue Jaufré Rudel,NULL,,34080,Montpellier,,,,,,,NULL,,,,NULL
699651,60,,74016321,2,Ecole maternelle Averroès,43.6380231430533,3.81968742820004,10410,#EDUCATION#ECOLE#PRIMAIRE,Rue Jaufre Rudel,34000,MONTPELLIER,Ecole maternelle Averroès,Ecoles maternelles,Mosson,04 67 75 27 10,,,,,NULL,NULL,47,NULL,rue Jaufré Rudel,NULL,,34080,Montpellier,,,,,,,NULL,,,,NULL
699758,326,,595224917,1,Ecole maternelle Nicolas Copernic,43.6396817,3.8119621,10410,#EDUCATION#ECOLE#PRIMAIRE,Rue Pierre Nicolas,34000,MONTPELLIER,Ecole maternelle Nicolas-Copernic,Ecoles maternelles,Mosson,04 67 75 49 31,,,,,NULL,NULL,,NULL,Rue Pierre-Nicolas,NULL,,34080,Montpellier,,,,,,,NULL,,,,NULL
699516,335,,595183637,1,Ecole Élémentaire Marc Bloch,43.6398506,3.8119728,10410,#EDUCATION#ECOLE#PRIMAIRE,Allée des Hauts de Montpellier,34000,MONTPELLIER,Ecole Élémentaire Marc Bloch,Ecoles Élémentaires,Mosson,04 67 75 13 87,,,,,NULL,NULL,135,NULL,Allée des hauts de Montpellier,NULL,,34080,Montpellier,,,,,,,NULL,,,<p>Â </p>,NULL
699769,338,,74024563,2,Ecole Élémentaire Kurosawa,43.6399785808011,3.81973802844836,10410,#EDUCATION#ECOLE#PRIMAIRE,Rue Pierre Cardenal,34000,MONTPELLIER,Ecole Élémentaire Kurosawa,Ecoles Élémentaires,Mosson,04 67 75 28 34,,,,,NULL,NULL,400,NULL,rue Pierre Cardenal,NULL,,34080,Montpellier,,,,,,,NULL,,,<p>Â </p>,NULL
699497,77,,74024497,2,Ecole maternelle Indira Gandhi,43.6404574324944,3.81972222697555,10410,#EDUCATION#ECOLE#PRIMAIRE,Rue Pierre Cardenal,34000,MONTPELLIER,Ecole maternelle Indira-Gandhi,Ecoles maternelles,Mosson,04 67 75 35 45,,,,,NULL,NULL,380,NULL,rue Pierre-Cardenal,NULL,,34080,Montpellier,,,,,,,NULL,,,<p>Â </p>,NULL
699782,79,,595096763,1,Ecole maternelle Pablo Picasso,43.640889,3.8179273,10410,#EDUCATION#ECOLE#PRIMAIRE,Avenue Guilhem de Poitiers,34000,MONTPELLIER,Ecole maternelle Pablo-Picasso,Ecoles maternelles,Mosson,04 67 40 06 97,,,,,NULL,NULL,41,NULL,avenue Guilhem de Poitier,NULL,,34080,Montpellier,,,,,,,NULL,,,,NULL
699663,47,,289012694,1,Ecole Élémentaire Docteur Calmette,43.6416187,3.8566052,10410,#EDUCATION#ECOLE#PRIMAIRE,Rue des Quatre Seigneurs,34000,MONTPELLIER,Ecole Élémentaire Docteur Calmette,Ecoles Élémentaires,Hôpitaux - Facultés,04 67 63 47 25,,,,,NULL,NULL,147,NULL,rue des Quatre Seigneurs,NULL,,34090,Montpellier,,,,,,,NULL,,,,NULL
699387,320,,289012693,1,Ecole maternelle Agrippa d'Aubigné,43.6421715,3.856322,10410,#EDUCATION#ECOLE#PRIMAIRE,Rue des Quatre Seigneurs,34000,MONTPELLIER,Ecole maternelle Agrippa d'Aubigné,Ecoles maternelles,Hôpitaux - Facultés,04 67 63 24 20,,,,,NULL,NULL,147,NULL,rue des Quatre Seigneurs,NULL,,34090,Montpellier,,,,,,,NULL,,,<p>Â </p>,NULL
699677,330,,595198230,1,Ecole maternelle Jacques Prévert,43.6426961,3.8161624,10410,#EDUCATION#ECOLE#PRIMAIRE,Avenue du Comté de Nice,34000,MONTPELLIER,Ecole maternelle Jacques-Prévert,Ecoles maternelles,Mosson,04 67 75 64 66,,,,,NULL,NULL,209,NULL,avenue du Comté de Nice,NULL,,34080,Montpellier,,,,,,,NULL,,,,NULL
699669,202,,606179388,1,Maison de quartier Pauline Lafont,43.5889371,3.8642632,10905,#EDUCATION#MAISONDEQUARTIER,Rue Jacques Bounin,34000,MONTPELLIER,Maison de quartier Pauline Lafont,Maisons pour tous,Croix d'Argent,04 67 27 33 41,04 67 27 99 24,mptcamus@mpt.ville-montpellier.fr,,,,,635,,rue,Jacques-Bounin,,34070,Montpellier,,,,,,,,ligne 2 station Villeneuve d'Angoulème,,"""<p><strong>Accueil et renseignements</strong><br>Annexe de la <a id=""""TPL_ANNUAIRE"""" href=""""#"""" title=""""Maison pour tous Albert-Camus"""" ancre=""""301"""" typelien=""""LienTemplate"""">Maison pour tous Albert-Camus</a></p>""",
699708,32,,613501164,1,Maison pour tous Michel Colucci,43.5937259,3.840713,10905,#EDUCATION#MAISONDEQUARTIER,Rue de Cheng Du,34000,MONTPELLIER,Maison pour tous Michel Colucci,Maisons pour tous,Croix d'Argent,04 67 42 52 85,04 67 42 44 24,mpt.m.colucci@wanadoo.fr,,Stationnement tout public,,,205,,rue,de Chengdu,,34070,Montpellier,,,,,,,,,11 ou la Ronde arrèt Rouget de Lisle,"""<p><strong>Accueil et renseignements</strong><br>du lundi au vendredi de 9h &#224",12h et de 14h &#224
699574,470,,601512376,1,Maison pour tous l'Escoutaà¯re,43.5953515,3.8846325,10905,#EDUCATION#MAISONDEQUARTIER,Rue des Razeteurs,34000,MONTPELLIER,Maison pour tous L'Escoutaà¯re,Maisons pour tous,Prés d'Arênes,04 67 65 32 70,04 67 22 52 45,mpt.escoutaire@wanadoo.fr,,,,,67,,rue,des Razeteurs,,34070,Montpellier,,,,,,,,,"""12 arrèt Razeteurs 16 arrêt Lucullus",""";""<p><strong>Accueil et renseignements</strong><br>Du lundi au jeudi de 9h &#224""",19h<br>vendredi de 9h &#22
699526,469,,608259048,1,Maison pour tous Boris Vian,43.5961903,3.8917753,10905,#EDUCATION#MAISONDEQUARTIER,Rue de l'Améthyste,34000,MONTPELLIER,Maison pour tous Boris Vian,Maisons pour tous,Prés d'Arênes,04 67 64 14 67,04 67 22 51 30,mpt.b.vian@wanadoo.fr,,,,,14,,rue,de l'Améthyste,,34070,Montpellier,,,,,,,,ligne 1 station Moularès,8 arrèt Jean Mirailhet ou Collège les Aiguerelles,"""<p><strong>Accueil et renseignements</strong><br>Du lundi au&#160",jeudi&#160
699668,201,,608349251,1,Maison pour tous Albert Camus,43.5967355,3.8699636,10905,#EDUCATION#MAISONDEQUARTIER,Allée Maurice Bonafos,34000,MONTPELLIER,Maison pour tous Albert Camus,Maisons pour tous,Croix d'Argent,04 67 27 33 41,04 67 27 99 24,mptcamus@mpt.ville-montpellier.fr,,,,,118,,Allée,Maurice Bonafos,BP8006,34070,Montpellier,,,,,,,,ligne 2 station Mas Drevon,5 arrèt Stade Sabathé,"""<p><strong>Accueil et renseignements</strong><br>du lundi au vendredi de 9h &#224",12h15 et de 13h15 &#224
699693,404,,613468486,1,Maison de quartier Antoine de Saint-Exupéry,43.5979866,3.8385113,10905,#EDUCATION#MAISONDEQUARTIER,Allée du Briol,34000,MONTPELLIER,Maison de quartier Antoine de Saint Exupéry,Maisons pour tous,Les Cévennes,04 67 47 30 90,04 67 07 98 32,mpt.saint.exupery@wanadoo.fr,,Stationnement tout public,,,130,,Allée,du Briol,,34070,Montpellier,,,,,,,,,"7, 11 et La Ronde arrèt Les Bouisses / 11  et la Ronde arrèt Paul Fajon","""<p><strong>Accueil et renseignements</strong><br>du lundi au vendredi de 9h &#224",12h et de 14h &#224
699525,468,,608146092,1,Maison de quartier Jean-Pierre Caillens,43.5812452,3.8769207,10905,#EDUCATION#MAISONDEQUARTIER,Place de Tibériade,34000,MONTPELLIER,Maison de quartier Jean-Pierre Caillens,Maisons pour tous,Prés d'Arênes,04 67 42 63 04,04 67 27 62 08,mpt.caillens@wanadoo.fr,,,,,,,Place,de Tibériade,Tournezy,34070,Montpellier,,,,,,,,,16 arrèts Mas Saint Pierre ou Montels l'Eglise,"""<p><strong>Accueil et renseignements</strong><br>du lundi au vendredi de 9h &#224",12h et de 14h &#224
699692,403,,601522031,1,Maison pour tous Marcel Pagnol,43.6014204,3.850223,10905,#EDUCATION#MAISONDEQUARTIER,Route de Lavérune,34000,MONTPELLIER,Maison pour tous Marcel Pagnol,Maisons pour tous,Les Cévennes,04 67 42 98 51,04 67 42 52 38,mptmpagnol@orange.fr,,,,,64,,route,de Lavérune,,34070,Montpellier,,,,,,,,,6 arrèt Terminus / 11 arrèt Cité Valette,"""<p><strong>Accueil et renseignements</strong><br>Du lundi au vendredi de 8h45 &#224",&#160
699538,291,,256092670,1,Maison pour tous Voltaire,43.6042276,3.8889187,10905,#EDUCATION#MAISONDEQUARTIER,"3, square Jean Monnet A",34000,MONTPELLIER,Maison pour tous Voltaire,Maisons pour tous,Montpellier Centre,04 99 52 68 45,04 99 52 68 46,mpt.voltaire@numericable.fr,,,,,3,,Square,Jean Monnet,,34070,Montpellier,,,,,,,,ligne 2 station Voltaire,,"""<p><strong>Accueil et renseignements</strong><br>du lundi au vendredi de 9h &#224",19h<br>vendredi fermeture &#224
699777,289,,601516766,1,Maison pour tous François de Malherbe,43.6056079,3.8592137,10905,#EDUCATION#MAISONDEQUARTIER,"15, rue François de Malherbe",34000,MONTPELLIER,,,,,,,,,,,,,,,,,,,,,,,,,,,,
699767,63,,613491805,1,Maison pour tous Joseph Ricôme,43.6085842,3.8662914,10905,#EDUCATION#MAISONDEQUARTIER,Rue Pagès,34000,MONTPELLIER,Maison pour tous Joseph Ricôme,Maisons pour tous,Montpellier Centre,04 67 58 71 96,04 67 58 23 99,mpt.j.ricome@wanadoo.fr,,,,,7,,rue,Pagès,,34070,Montpellier,,,,,,,,,"""11 arrèt Renouvier / 15 arrèt Plan Cabanes",";<p><strong>Accueil et renseignements</strong><br>du lundi au vendredi de 9h &#224""",
699690,401,,608165173,1,Maison pour tous André Chamson,43.609014,3.8357482,10905,#EDUCATION#MAISONDEQUARTIER,Rue Gustave Eiffel,34000,MONTPELLIER,Maison pour tous André Chamson,Maisons pour tous,Les Cévennes,04 67 75 10 55,04 67 75 09 60,mpt.a.chamson@wanadoo.fr,,stationnement tout public,,,105,,rue,Gustave Eiffel,,34070,Montpellier,,,,,,,,,7 arrèts M. Teste ou La Martellière,"""<p><strong>Accueil et renseignements</strong><br>Lundi, mardi et jeudi de 9h &#224",12h et de 14h &#224
699707,108,,613484759,1,Maison de quartier Jacques Prévert,43.6112662,3.8553849,10905,#EDUCATION#MAISONDEQUARTIER,Rue des Sureaux,34000,MONTPELLIER,Maison de quartier Jacques Prévert,Maisons pour tous,Les Cévennes,04 67 04 23 10,04 67 04 03 10,mptguillierme@mpt.ville-montpellier.fr,,,,,14,,rue,des Sureaux,Cité Astruc,34080,Montpellier,,,,,,,,,15 arrèt Cité Astruc,"""<p><strong>Accueil et renseignements</strong><br><a id=""""523"""" href=""""#"""" title=""""Maison pour tous Fanfonne Guillierme """" typelien=""""LienInterne"""" libelle_ancre=""""undefined"""">Maison pour tous Fanfonne Guillierme</a></p>""",
699588,245,,76003871,2,Maison pour tous Marie Curie,43.6128573832811,3.83061997411325,10905,#EDUCATION#MAISONDEQUARTIER,Allée Antonin Chauliac,34000,MONTPELLIER,Maison pour tous Marie Curie,Maisons pour tous,Mosson,04 67 75 10 34,04 67 75 36 19,mptmcurie@mpt.ville-montpellier.fr,,,,,13,,Allée,Antonin Chauliac,,34080,Montpellier,,,,,,,,,15 et 25 arrèt Marie Curie,"""<p><strong>Accueil et renseignements</strong><br>Du lundi au vendredi de 9h &#224",12h30 et de 13h30 &#224
699556,429,,613500217,1,Maison pour tous Mélina Mercouri,43.6136457,3.9081574,10905,#EDUCATION#MAISONDEQUARTIER,Rue de la Vieille Poste,34000,MONTPELLIER,Maison pour tous Mélina Mercouri,Maisons pour tous,Port Marianne,04 99 92 23 80,04 99 92 23 81,mpt.mercouri@wanadoo.fr,,,,,842,,rue,de la Vieille Poste,,34000,Montpellier,,,,,,,,,9 ou La Ronde arrèt Pinville,"""<p><strong>Accueil et renseignements</strong><br>Du lundi au vendredi de 9h &#224",12h30 et de 14h &#224
699617,406,,28382861,2,Maison pour tous François Villon,43.615406509723,3.83942051609934,10905,#EDUCATION#MAISONDEQUARTIER,Rue des Araucarias,34000,MONTPELLIER,Maison pour tous François Villon,Maisons pour tous,Les Cévennes,04 67 45 04 57,04 67 40 12 52,mpt.f.villon@wanadoo.fr,,,,,,,Rue,des Araucarias,,34080,Montpellier,,,,,,,,,6 arrèt Pergola / 15 ou La Ronde arrèt Les Tonnelles / 16 arrèt Le Belvédère,"""<p><strong>Accueil et renseignements</strong><br>Du lundi au vendredi de 9h &#224",12h et de 14h &#224
699673,288,,185562260,1,Maison de quartier Frédéric Chopin,43.6162235,3.8839491,10905,#EDUCATION#MAISONDEQUARTIER,Rue du Marché aux Bestiaux,34000,MONTPELLIER,Maison de quartier Frédéric Chopin,Maisons pour tous,Montpellier Centre,04 67 72 61 83,04 67 72 61 61,mpt.f.chopin@wanadoo.fr,,,,,1,,rue,du Marché aux Bestiaux,,34000,Montpellier,,,,,,,,ligne 1 station Corum / ligne 2 station Beaux-Arts,,"""<p><strong>Accueil et renseignements</strong><br>Du lundi au vendredi de 9h &#224",12h et de 14h &#224
699674,290,,60218330,2,Maison pour tous George Sand,43.6188663317103,3.89399280428767,10905,#EDUCATION#MAISONDEQUARTIER,Avenue Saint-André de Novigens,34000,MONTPELLIER,Maison pour tous George Sand,Maisons pour tous,Montpellier Centre,04 67 79 22 18,04 67 79 71 64,mpt.sand@wanadoo.fr,,,,,25,Bis,avenue,Saint André de Novigens,,34000,Montpellier,,,,,,,,ligne 2 station Les Aubes / Correspondance tramway ligne 1 station Léon Blum,14 arrèts Rimbaud ou Palombes,"""<p><strong>Accueil et renseignements</strong><br>du lundi au vendredi de 9h &#224",12h et de 14h &#224
699626,428,,601547717,1,Maison de quartier Pierre Azéma,43.6191463,3.9003286,10905,#EDUCATION#MAISONDEQUARTIER,Rue André Malraux,34000,MONTPELLIER,Maison de quartier Pierre Azéma,Maisons pour tous,Port Marianne,04 67 02 48 52,04 67 02 12 89,mpt.azema@wanadoo.fr,,,,,35,,rue,André Malraux,,34000,Montpellier,,,,,,,,,9 arrèt André Malraux / La Ronde arrèt Sémard,"""<p><strong>Accueil et renseignements</strong><br>du lundi au&#160",jeudi de 9h &#224
699691,402,,608217206,1,Maison pour tous Fanfonne Guillierme,43.6215138,3.8427439,10905,#EDUCATION#MAISONDEQUARTIER,Rue des Avant-Monts,34000,MONTPELLIER,Maison pour tous Fanfonne Guillierme,Maisons pour tous,Les Cévennes,04 67 04 23 10,04 67 04 03 10,mptguillierme@mpt.ville-montpellier.fr,,1 place réservée,,,,,Rue,des Avant-Monts,,34080,Montpellier,,,,,,,,,16 arrèts Sainte Geneviève ou Cévennes,"""<p><strong>Accueil et renseignements</strong><br>du lundi au vendredi de 9h &#224",12h et de 14h &#224
699770,107,,608149745,1,Maison de quartier Jean-Pierre Chabrol,43.6222019,3.8460123,10905,#EDUCATION#MAISONDEQUARTIER,Avenue du Professeur Louis Ravas,34000,MONTPELLIER,Maison de quartier Jean-Pierre Chabrol,Maisons pour tous,Les Cévennes,04 67 57 56 67,04 99 58 13 60,mpt.p.e.victor@wanadoo.fr,,,,,921,,avenue,du Professeur Louis Ravaz,,34080,Montpellier,,,,,,,,,16 arrèt Cévennes,"""<p><strong>Accueil et renseignements</strong><br>du lundi au vendredi de 9h &#224",12h et de 14h &#224
699616,405,,469733712,1,Maison pour tous Paul-Emile Victor,43.6244162,3.8425207,10905,#EDUCATION#MAISONDEQUARTIER,Avenue du Professeur Louis Ravas,34000,MONTPELLIER,Maison pour tous Paul-Emile Victor,Maisons pour tous,Les Cévennes,04 99 58 13 58,04 99 58 13 60,mpt.p.e.victor@wanadoo.fr,,,,,1247,,avenue,du Professeur Louis Ravaz,,34080,Montpellier,,,,,,,,ligne 1 station Château d'à”,16 arrèt Sainte Geneviève / 7 arrèt Hôtel du Département,"""<p><strong>Accueil et renseignements</strong><br>du lundi au jeudi de 9h &#224",12h30 et de 14h &#224
699510,228,,598173759,1,Maison pour tous Albert Dubout,43.6261479,3.8825499,10905,#EDUCATION#MAISONDEQUARTIER,Avenue de la Justice de Castelnau,34000,MONTPELLIER,Maison pour tous Albert Dubout,Maisons pour tous,Hôpitaux - Facultés,04 67 02 68 58,04 67 79 81 54,mptdubout@mpt.ville-montpellier.fr,,,,,1071,,avenue,de la Justice de Castelnau,,34090,Montpellier,,,,,,,,ligne 2 station Aiguelongue,La Ronde ou 5 arrèt Aiguelongue,"""<p><strong>Accueil et renseignements</strong><br>Du lundi au vendredi de 9h &#224","18h30</p>"""
699853,246,,598143229,1,Maison pour tous Léo Lagrange,43.6280644,3.816721,10905,#EDUCATION#MAISONDEQUARTIER,Rue de Bologne,34000,MONTPELLIER,Maison pour tous Léo Lagrange,Maisons pour tous,Mosson,04 67 40 33 57,04 67 40 13 69,mptlagrange@mpt.ville-montpellier.fr,,Parking tout public,,,155,,avenue,de Bologne,,34080,Montpellier,,,,,,,,ligne 1 station Halles de la Paillade,15 arrèt Halles de la Paillade,"""<p><strong>Accueil et renseignements</strong><br>du lundi au vendredi de 9h &#224",12h30 et de 13h30 &#224
699646,42,,613479238,1,Maison de quartier Emma Calvé,43.6310439,3.8558889,10905,#EDUCATION#MAISONDEQUARTIER,Impasse des Acacias,34000,MONTPELLIER,Maison de quartier Emma Calvé,Maisons pour tous,Hôpitaux - Facultés,04 67 04 08 42,04 67 04 08 42,mptdubout@mpt.ville-montpellier.fr,,Stationnement possible à  l'intérieur de l'enceinte,,,,,Impasse,des Acacias,,34090,Montpellier,,,,,,,,ligne 1 station Lapeyronnie,,"""<p><strong>Accueil et renseignements</strong><br>Du lundi au vendredi de 9h &#224",12h et de 13h30 &#224
699599,273,,595129589,1,Maison pour tous Georges Brassens,43.6420575,3.8186059,10905,#EDUCATION#MAISONDEQUARTIER,Place Jacques Brel,34000,MONTPELLIER,Maison pour tous Georges Brassens,Maisons pour tous,Mosson,04 67 40 40 11,04 67 45 18 88,mptbrassens@mpt.ville-montpellier.fr,,Parking tout public,,,,,Place,Jacques-Brel,Les Hauts de Massane,34080,Montpellier,,,AUX_NORMES,,,,,ligne 1 station Hauts de Massane,15 arrèt Place d'Italie,"""<p><strong>Accueil et renseignement </strong><br>du lundi au vendredi de 9h &#224","19h30</p>"""
699689,400,,613501535,1,Théâtre Gérard Philipe,43.6083589,3.8662163,10910,#CULTURE#THEATRE,Rue Pagès,34000,MONTPELLIER,Théâtre Gérard Philipe,Salles de spectacle et concert,Montpellier Centre,04 67 58 71 96,04 67 58 23 99,mtp.j.ricome@wanadoo.fr,,Arceaux et Gambetta,,,7,,rue,Pagès,Maison pour tous Joseph Ricôme,34000,Montpellier,,,,,,,,,"""11 arrèt Renouvier / 15 arrèt Plan Cabannes",;;,
699355,128,,48285091,2,Théâtre des Treize Vents,43.6168746689677,3.93098854102729,10910,#CULTURE#THEATRE,Avenue Albert Einstein,34000,MONTPELLIER,,,,,,,,,,,,,,,,,,,,,,,,,,,,
699665,154,1,73974416,2,Théâtre Jean Vilar,43.6285695670117,3.81613026242741,10910,#CULTURE#THEATRE,Rue de Bologne,34000,MONTPELLIER,Théâtre Jean-Vilar,Salles de spectacle et concert,Mosson,04 67 40 41 39,,,http://theatrejeanvilar.montpellier.fr,,NULL,NULL,155,NULL,rue de Bologne,NULL,,34184,Montpellier,Cedex 4,,,,,,NULL,,,,NULL
699554,398,,265363031,1,Galerie Saint Ravy,43.6091125,3.8770478,10915,#CULTURE#EXPOSITION,Place Saint-Ravy,34000,MONTPELLIER,Galerie Saint Ravy,Salles d'expo,Montpellier Centre,04 34 88 76 68 (admin.) - 04 67 60 61 66 (galerie),04 67 34 88 90,galerie.saint-ravy@ville-montpellier.fr,,,,,,,Place,Saint Ravy,,34000,Montpellier,,PRATICABLE,PRATICABLE,,,,,,,"""<p>La Galerie Saint Ravy est une salle d&#8217",exposition municipale situ&#233
699688,391,,598185433,1,Musée de l'Histoire de Montpellier,43.6098384,3.8777584,10915,#CULTURE#MUSEE,Place Jean Jaurès,34000,MONTPELLIER,Musée de l'histoire de Montpellier,Musées,Montpellier Centre,04 67 34 87 50,04 67 34 87 51,contact@ville-montpellier.fr,,,,,,,Place,Jean Jaurès,,34000,Montpellier,,,,,,,,Tramway : ligne 1 station Comédie,,"""<p>Du mardi au dimanche de 10h 30 &#224",12h 30 et de 13h 30 &#224
699399,396,,598186607,1,Carré Sainte Anne,43.6101827,3.8744629,10915,#CULTURE#MUSEE,Rue Sainte-Anne,34000,MONTPELLIER,Le Carré Sainte-Anne,Salles d'expo,Montpellier Centre,04 67 34 88 80 (admin.) - 04 67 60 82 11 (accueil),04 67 34 88 90,madeline.faure@ville-montpellier.fr,,,,,,,Rue,Accès rue Philippy et rue Sainte Anne,Eglise désacralisée située sur la place du Petit-Scel,34000,Montpellier,,AUX_NORMES,AUX_NORMES,,,"Parking sous-sol le plus proche : parking de la préfecture Parking plein air le plus proche : parking des arceaux""""""","""Centre historique piéton. Eglise désacralisée située sur la place du Petit-Scel. Deux accès visiteurs rue Philippy et rue Sainte Anne.",Ligne 1 arrèt Albert 1er ou Comédie ,"us nÂ° 6, 7 et 16 arrèt Peyrou",<p>Install&#233,dans une &#233
699845,103,,598184808,1,Musée du vieux Montpellier,43.6106627,3.8785261,10915,#CULTURE#MUSEE,Place Pétrarque,34000,MONTPELLIER,Musée du vieux Montpellier,Musées,Montpellier Centre,04 67 66 02 94,,,,,,,2,,place,Pétrarque,Hôtel de Varennes,34000,Montpellier,,PRATICABLE,,,,,,"Ligne 1, arrèt Corum",,"""<p>Ouverture du mardi au dimanche de 10h30 &#224",12h30 et de 13h30 &#224
699397,380,,60727537,1,Musée Fabre,43.6116695,3.8801804,10915,#CULTURE#MUSEE,Boulevard Sarrail,34000,MONTPELLIER,Musée Fabre de Montpellier Agglomération,Musées,Montpellier Centre,04 67 14 83 00,04 67 66 09 20,musee.fabre@montpellier-agglo.com,http://museefabre.montpellier-agglo.com,Comédie,,,13,,rue,Montpelliéret,,34000,Montpellier,,AUX_NORMES,AUX_NORMES,AUX_NORMES,,,,lignes 1 et 2 - Stations Comédie et Corum,,"""<p>Le public peut&#160",d&#233
699455,464,,76181115,2,Zénith Sud,43.6130458828319,3.93091610120578,10920,#CULTURE#CONCERT,Avenue Albert Einstein,34000,MONTPELLIER,Le Zénith Sud,Salles de spectacle et concert,Port Marianne,04 67 64 68 83,04 67 65 38 18,zenith@enjoy-montpellier.com,http://www.enjoy-montpellier.com,,NULL,NULL,,NULL,Avenue Albert-Einstein,NULL,Domaine de Grammont,34000,Montpellier,,AUX_NORMES,,,,,NULL,,,"""<p class=""""AccueilTitre"""">Une salle incontournable ! </p><p>Apprécié du public et des artistes, le Zénith a été construit sur son modèle parisien : espace scénique multiforme, grande modularité des espaces publics... </p><p>Première salle de ce type impl",NULL
699460,535,,75232109,2,Médiathèque d'Agglomération Federico Garcia Lorca,43.5899796400452,3.89072640798439,10930,#CULTURE#MEDIATHEQUE,Avenue de Palavas,34000,MONTPELLIER,Médiathèque Federico-Garcia Lorca,Bibliothèques et Médiathèques,Prés d'Arênes,04 99 13 39 49,04 99 13 39 50,,http://mediatheque.montpellier-agglo.com,,NULL,NULL,162,NULL,avenue de Palavas,NULL,,34070,Montpellier,,,,,,,NULL,,"lignes 16 et 17, arrèt Garcia-Lorca","""<p>L'architecture originale de cette Médiathèque, gérée par <a id=""""310"""" title=""""Accéder au site web de Montpellier Agglomération"""" href=""""#"""" typelien=""""LienExterne"""">Montpellier Agglomération</a>,Â rend hommage aux formes expressives du poà«te-musicien ",NULL
699765,56,,440973806,1,Médiathèque d'Agglomération Victor Hugo,43.5963422,3.8653739,10930,#CULTURE#MEDIATHEQUE,Rue Guillaume Janvier,34000,MONTPELLIER,Médiathèque Victor Hugo,Bibliothèques et Médiathèques,Croix d'Argent,04 67 27 17 17,04 67 42 46 97,,http://mediatheque.montpellier-agglo.com,,NULL,NULL,207,NULL,rue Guillaume Janvier,NULL,,34070,Montpellier,,,,,,,NULL,Ligne 2 arrèt Mas Drevon,ligne 6 arrèt Guillaume-Janvier et ligne 5 arrèt Villeneuve-d'Angoulème,"""<p>La Médiathèque, géré par <a id=""""310"""" title=""""Accès direct au site web de Montpellier Agglomération"""" href=""""#"""" typelien=""""LienExterne"""">Montpellier Agglomération</a>,Â constitue un pôle culturel essentiel dans le quartier, desservi par laÂ ligne 2 de",NULL
699789,378,,601514882,1,Bibliothèque Jean-Paul Sartre,43.6056079,3.8590528,10930,#CULTURE#MEDIATHEQUE,"4, rue Samain",34000,MONTPELLIER,Bibliothèque Jean-Paul Sartre,Bibliothèques et Médiathèques,Montpellier Centre,04 67 07 92 86,,,http://mediatheque.montpellier-agglo.com/,,NULL,NULL,4,NULL,rue Samain,NULL,,34000,Montpellier,,,,,,,NULL,,"ligne 7, arrèt Mas de Merle et ligne 11, arrèt Cité Gély","""<p>En plein cÅ“ur du quartier Figuerolles, un espace culturel ouvert à  tous, géré par <a id=""""310"""" title=""""Accéder au site web de Montpellier Agglomération"""" href=""""#"""" typelien=""""LienExterne"""">Montpellier Agglomération</a>.Â Â  </p></font />""",NULL
699394,379,1,22913747,2,Médiathèque Centrale d'Agglomération Emile Zola,43.6084048984822,3.89330051565185,10930,#CULTURE#MEDIATHEQUE,Boulevard de l'Aéroport International,34000,MONTPELLIER,Médiathèque centrale Émile Zola,Bibliothèques et Médiathèques,Montpellier Centre,04 67 34 87 00,04 67 34 87 01,,http://mediatheque.montpellier-agglo.com/,,,,218,,boulevard,de l'Aéroport International,,34000,Montpellier,,,,,,,,ligne 1 arrèt Place de l'Europe,ligne 12 arrèt Piscine Olympique,"""<p>Capable d&#8217",accueillir simultan&#233
699869,98,,265384953,1,Médiathèque d'Agglomération Federico Fellini,43.6086706,3.8863725,10930,#CULTURE#MEDIATHEQUE,Place Paul Bec,34000,MONTPELLIER,Médiathèque Federico Fellini,Bibliothèques et Médiathèques,Montpellier Centre,04 99 06 27 47,04 99 06 27 43,,http://mediatheque.montpellier-agglo.com/,,NULL,NULL,,NULL,Place Paul-Bec,NULL,,34000,Montpellier,,,,,,,NULL,ligne 1 arrèt Antigone,ligne 8 arrèt Hôtel de ville,"""<p>Créée en 1995 par la Ville de Montpellier, la Médiathèque Federico Fellini est aujourd'hui un élément-clé du réseau des Médiathèques de <a id=""""310"""" title=""""Accéder au site web de Montpellier Agglomération"""" href=""""#"""" typelien=""""LienExterne"""">Montpe",NULL
699683,200,,28382867,2,Médiathèque d'Agglomération William Shakespeare,43.6149118459898,3.83914426127574,10930,#CULTURE#MEDIATHEQUE,Avenue Paul Bringuier,34000,MONTPELLIER,Médiathèque William Shakespeare,Bibliothèques et Médiathèques,Les Cévennes,04 67 16 34 20,04 67 16 34 21,,http://mediatheque.montpellier-agglo.com,,NULL,NULL,150,NULL,avenue Paul-Bringuier,NULL,,34080,Montpellier,,,,,Parking réservé à  la Médiathèque,,NULL,,"""lignes 15 et 25, arrèt Les Tonnelles ligne 6, arrèt Paul-Bringuier  La Ronde, arrèts Belvédère ou Les Tonnelles""""""","""<p>Cette Médiathèque, gérée par <a id=""""310"""" title=""""Accéder au site web de Montpellier Agglomération"""" href=""""#"""" typelien=""""LienExterne"""">Montpellier Agglomération</a>,Â dispose de 1 000 mÂ², offre près de 31 000 documents en prèt, un espace d'animation",NULL
699411,325,,70896728,1,Bibliothèque Paul Langevin,43.6263088,3.8825354,10930,#CULTURE#MEDIATHEQUE,Avenue de la Justice de Castelnau,34000,MONTPELLIER,Bibliothèque Paul Langevin,Bibliothèques et Médiathèques,Hôpitaux - Facultés,04 67 72 58 76,04 67 42 46 97,,http://mediatheque.montpellier-agglo.com/,,,,1071,,avenue,de la Justice-de-Castelnau,Maison pour tous Albert-Dubout,34090,Montpellier,,,,,,,,"""ligne 2, arrèt Aiguelongue ",""";ligne 9 et La Ronde, arrèt Montasinos""","<p>La biblioth&#232que Paul Langevin, situ&#233",
699350,529,,74004395,2,Médiathèque d'Agglomération Jean-Jacques Rousseau,43.6332786858898,3.8194533865678,10930,#CULTURE#MEDIATHEQUE,Avenue du Biterrois,34000,MONTPELLIER,Médiathèque Jean-Jacques Rousseau,Bibliothèques et Médiathèques,Mosson,04 67 10 70 20,04 67 10 70 29,,http://mediatheque.montpellier-agglo.com,,NULL,NULL,230,NULL,avenue du Biterrois,NULL,,34080,Montpellier,,,,,,,NULL,"ligne 1, station Saint-Paul","ligne 15, arrèt Gémeaux","""<p>La Médiathèque, gérée par <a id=""""310"""" title=""""Accéder au site de Montpellier Agglomération"""" href=""""#"""" typelien=""""LienExterne"""">Montpellier Agglomération</a>,Â propose de nombreux espaces et services dédiés aux enfants. </p></font />""",NULL
699704,376,,46536183,2,Beach-Volley Les Arts,43.61776265,3.88284825,107050,#SPORT#VOLLEY,Rue de Substantion,34000,MONTPELLIER,,,,,,,,,,,,,,,,,,,,,,,,,,,,
699632,486,,608109907,1,Piscine La Rauze : Suzanne Berloux,43.5902305,3.8950796,107051,#SPORT#PISCINE,Rue de la Métairie de Saysset,34000,MONTPELLIER,Piscine Suzanne-Berlioux,Piscines,Prés d'Arênes,04 67 65 38 71,,,,,NULL,NULL,,NULL,Rue Métairie-de-Saysset,NULL,,34000,Montpellier,,,,,,,NULL,,ligne 8 terminus La Rauze,"""<p><img alt=""""Photo piscine Suzanne Berlioux"""" src=""""/uploads/WEB_CHEMIN_925_1128951246.gif"""" align=""""left"""" idtf=""""925"""" /></p><p>Piscine de type Â« tournesol Â», gérée par <a id=""""310"""" title=""""Montpellier Agglomération"""" href=""""#"""" typelien=""""LienExtern",NULL
699507,185,,613508504,1,Piscine La Chamberte Marcel Spillaert,43.5983155,3.843135,107051,#SPORT#PISCINE,Rue Camille Desmoulins,34000,MONTPELLIER,Piscine Marcel-Spilliaert,Piscines,Les Cévennes,04 67 42 00 92,,,,,NULL,NULL,154,NULL,rue Camille-Desmoulins,NULL,,34000,Montpellier,,,,,,,NULL,,ligne 11 arrèt Collège Marcel-Pagnol,"""<p><img alt=""""Photo piscine Marcel Spilliaert """" src=""""/uploads/WEB_CHEMIN_927_1128951999.gif"""" align=""""left"""" idtf=""""927"""" />Agréable piscine avec un bassin sportif de 25 mètres (5 couloirs) et un petit bassin permettant l'apprentissage de la natation e",NULL
699586,243,,582925485,1,Piscine Maurin Jean Vives,43.5877101,3.8726217,107051,#SPORT#PISCINE,Avenue de Maurin,34000,MONTPELLIER,Piscine de Maurin,Piscines,Prés d'Arênes,04 67 27 74 79,,,,,NULL,NULL,1933,NULL,avenue de Maurin,NULL,,34000,Montpellier,,,,,,,NULL,,"""Ligne 27 - Arrèt : """"Passerines""""",;<p>Â </p>,NULL
699658,125,,613509386,1,Piscine Nakache - Complexe Léon Cazal,43.6051817,3.9055626,107051,#SPORT#PISCINE,Route de Vauguières,34000,MONTPELLIER,Piscine Nakache,Piscines,Port Marianne,04 67 22 57 05,,,,,NULL,NULL,237,NULL,route de Vauguières,NULL,,34000,Montpellier,,,,,,,NULL,ligne 1 arrèt Millénaire,lignes 9 et 12 arrèt Saint-Michel,"""<p><img alt=""""Photo de la piscine Nakache"""" src=""""/uploads/WEB_CHEMIN_924_1128950985.gif"""" align=""""left"""" idtf=""""924"""" /></p><p>Cette piscine, gérée par <a id=""""310"""" title=""""Montpellier Agglomération"""" href=""""#"""" typelien=""""LienExterne"""">Montpellier Agg",NULL
699611,361,,22913744,2,Piscine Olympique d'Antigone,43.6074069820537,3.89318755447564,107051,#SPORT#PISCINE,Avenue Jacques Cartier,34000,MONTPELLIER,Piscine olympique d'Antigone,Piscines,Montpellier Centre,04 67 15 63 00,04 67 15 63 01,,,"""Parking """"Europa"""" 300 places""",,,195,,avenue,Jacques Cartier,,34000,Montpellier,,,,,,,,lignes 1 et 2 - station Place de l'Europe,ligne 9 arrèt Place de l'Europe et ligne 12 arrèt Piscine olympique,"""<p><img src=""""/uploads/Image/7f/WEB_CHEMIN_929_1128952799.gif"""" alt=""""Photo piscine Olympique d'Antigone"""" align=""""left"""" idtf=""""929""""></p> <ul> <li>&#233",quipement g&#233
699857,362,,251342960,1,Piscine Pitot,43.6125251,3.8703588,107051,#SPORT#PISCINE,"40, Allée Jean Raymond",34000,MONTPELLIER,Piscine Pitot,Piscines,Montpellier Centre,04 67 52 58 89,,,,,NULL,NULL,40,NULL,Allée Jean-Raymond,NULL,,34000,Montpellier,,,,,,,NULL,,"lignes 6, 7 et 16 arrèt Pitot","""<p><img alt=""""Photo piscine Pitot"""" src=""""/uploads/WEB_CHEMIN_926_1128951666.gif"""" align=""""left"""" idtf=""""926"""" />Cette piscine ?couverte de 25 mètres et 5 couloirs, gérée par <a id=""""310"""" title=""""Montpellier Agglomération"""" href=""""#"""" typelien=""""LienExt",NULL
699531,508,,613504659,1,Centre nautique Neptune,43.6202384,3.8152261,107051,#SPORT#PISCINE,Avenue de Heidelberg,34000,MONTPELLIER,Centre Nautique Neptune,Piscines,Mosson,04 67 75 34 93,,,,,NULL,NULL,,NULL,Avenue de Heidelberg,NULL,,34080,Montpellier,,,,,,,NULL,Ligne 1 station Mosson,"Lignes 15, 14, 25","""<p><img alt="""" """" src=""""/uploads/WEB_CHEMIN_905_1128605542.jpg"""" align=""""left"""" idtf=""""905"""" /></p><ul><li>Equipement géré par <a id=""""310"""" title=""""Lien vers Montpellier Agglomération"""" href=""""#"""" typelien=""""LienExterne"""">Montpellier Agglomération</a></",NULL
699858,454,,76184031,2,Piscine La Pompignane : Jean Taris,,,107051,#SPORT#PISCINE,Rue Louise Michel,34000,MONTPELLIER,Piscine Jean-Taris,Piscines,Port Marianne,04 67 79 03 11,,,,,NULL,NULL,67,NULL,rue Louise-Michel,NULL,,34000,Montpellier,,,,,,,NULL,,ligne 9 arrèt André-Malraux,"""<p><img alt=""""Photo de la piscine Jean Taris"""" src=""""/uploads/WEB_CHEMIN_930_1128953864.gif"""" align=""""left"""" idtf=""""930"""" /></p><p>Piscine de type Â«tournesolÂ», gérée par <a id=""""310"""" title=""""Montpellier Agglomération"""" href=""""#"""" typelien=""""LienExterne""",NULL
699863,73,,45903110,2,Gymnase Alain Colas,43.5898430298648,3.8681928702598,107052,#SPORT#GYMNASE,Rue de l'Arnel,34000,MONTPELLIER,Gymnase Alain Colas,Gymnases,Croix d'Argent,,,,,,NULL,NULL,222,NULL,rue de l'Arnel,NULL,,34070,Montpellier,,,,,,,NULL,,ligne 5,"<h5>Clubs sportifs et disciplines<br />Â </h5><ul><li>Croix d'Argent Volley (04 67 58 62 00) </li></ul><h5>Â <br />Horaires</h5><ul><li>Dans la Journée : écoles, collèges</li><li>18h - 22h : clubs </li></ul><p>Dans tous les cas, une demande de créneaux devr",NULL
699633,487,,608154607,1,Gymnase Henri Ferrari,43.5920332,3.8964423,107052,#SPORT#GYMNASE,Avenue du Docteur Jacques Fourcade,34000,MONTPELLIER,Gymnase Henri-Ferrari,Gymnases,Prés d'Arênes,,,,,,NULL,NULL,419,NULL,avenue du Docteur Jacques-Fourcade,NULL,,34000,Montpellier,,,,,,,NULL,,ligne 12,<ul><li><h5>Clubs sportifs et disciplines<br />Â </h5></li><li>Montpellier Handball (04 99 61 44 55) </li><li>Montpellier Arc : Club Tir à l'arc (04 67 22 23 40) </li><li>MUC Handball (04 67 79 13 25) </li></ul><h5><br />Â <br />Horaires</h5><ul><li>dans la,NULL
699659,136,,31300482,2,Gymnase Georges Busnel,43.5958945622218,3.88489216366939,107052,#SPORT#GYMNASE,Rue des Razeteurs,34000,MONTPELLIER,Gymnase Georges-Busnel,Gymnases,Prés d'Arênes,04 67 20 05 68,,,,,NULL,NULL,,NULL,Rue des Razeteurs,NULL,,34070,Montpellier,,,,,,,NULL,,ligne 12,"<h5>Les clubs et disciplines</h5><ul><li><p>MUC Handball Handball (04 67 79 13 25)Â  <br />Â </p></li></ul><h5>Horaires</h5><ul><li>dans la Journée : écoles, collèges</li><li>18h - 22h : clubs </li></ul><p>Dans tous les cas, une demande de créneaux devra èt",NULL
699390,318,,75840742,2,Gymnase Marcel Cerdan,43.5996475941862,3.8470136239627,107052,#SPORT#GYMNASE,Rue du Pas du Loup,34000,MONTPELLIER,Gymnase Marcel Cerdan,Gymnases,Croix d'Argent,,,,,,NULL,NULL,260,NULL,rue du Pas-du-Loup,NULL,,34070,Montpellier,,,,,,,NULL,,,<h5>Clubs sportifs et disciplines<br />Â </h5><ul><li>VLM Volley loisir (04 67 40 40 69) </li><li>Montpellier Basket Club (04 67 59 91 34)</li><li>Montpellier Chamberte Handball (04 67 42 59 12) </li><li>ASPTT Basket 04 99 52 60 70</li><li>Association Étud,NULL
699429,234,,,1,Salle de sports Charles Rigoulot,43.6001973027886,3.84831070242618,107052,#SPORT#GYMNASE,Rue du Pas du Loup,34000,MONTPELLIER,Salle de sports Charles Rigoulot,Salles de sports,Croix d'Argent,04 67 69 98 90,,,,,NULL,NULL,,NULL,Rue du Pas du Loup,NULL,,34000,Montpellier,,,,,,,NULL,,"Lignes de bus : 6,11",<h5>Activité proposée</h5><ul><li>Musculation (réservée uniquement aux clubs et associations du quartier) </li></ul><h5>Â <br />Â <br />Horaires</h5><ul><li>Se renseigner auprès des clubs et associations. </li></ul><p>Une demande de créneaux devra ètre fait,NULL
699391,319,,74292321,2,Gymnase Albert Batteux,43.5740321797568,3.85697853050606,107052,#SPORT#GYMNASE,Rue François-Joseph Gossec,34000,MONTPELLIER,Salle de sports Albert Batteux,Salles de sports,Croix d'Argent,,,,,,NULL,NULL,,NULL,Rue François-Joseph-Gossec,NULL,,34000,Montpellier,,,,,,,NULL,,,<ul><li>Â Roller</li><li>Foot en salle</li></ul>,NULL
699865,91,,45905867,2,Gymnase Emmanuel Gambardella,43.6028780909699,3.86966578138079,107052,#SPORT#GYMNASE,Rue Bourrely,34000,MONTPELLIER,Gymnase Emmanuel Gambardella,Gymnases,Montpellier Centre,,,,,,NULL,NULL,,NULL,Rue Bourrely,NULL,,34000,Montpellier,,,,,,,NULL,,,<h5>Â Clubs sportifs et disciplines<br />Â </h5><ul><li>Association étudiants Réunionnais Omnisports <br />(04 67 65 25 85)</li><li>Croix d'Argent Volley (04 67 58 62 00) </li><li>Croix d'Argent Basket (04 67 42 89 88) </li><li>V.L.C.A. Volley (04 67 72 56 ,NULL
699489,93,,621950727,1,Salle de sports Amélie Blanchard,43.6029339,3.8735284,107052,#SPORT#GYMNASE,Rue de Bercy,34000,MONTPELLIER,Salle de sports Amélie Blanchard,Salles de sports,Montpellier Centre,04 67 92 30 24,,,,,NULL,NULL,,NULL,Rue de Bercy,NULL,,34000,Montpellier,,,,,,,NULL,,"""lignes 5, 6, 7, 14, 20, 26, 27",;<h5>Clubs sportifs et disciplines<br />Â Â </h5><ul><li>AS Académique M.TKD Taekwondo (06 86 31 62 57) </li><li>Croix d'Argent Volley (04 67 58 62 00) </li><li>La Garriga Danse folklorique (04 67 13 72 04 HB)</li><li>Montpellier Taekwondo (04 67 54 17 37</l,NULL
699826,188,,629031240,1,Salle de sports Lachenal,43.6033284,3.8447409,107052,#SPORT#GYMNASE,Rue de la Croix de Figuerolles,34000,MONTPELLIER,,,,,,,,,,,,,,,,,,,,,,,,,,,,
699454,455,,,1,Salle de sports Le Hetet,43.6046680881041,3.90729793286526,107052,#SPORT#GYMNASE,Route de Vauquières,34000,MONTPELLIER,,,,,,,,,,,,,,,,,,,,,,,,,,,,
699733,365,,621954368,1,Salle de sports La Babote,43.6051502,3.8772352,107052,#SPORT#GYMNASE,Rue Parlier,34000,MONTPELLIER,Salle de sports La Babotte,Salles de sports,Montpellier Centre,04 67 92 93 44,,,,,NULL,NULL,,NULL,Rue Parlier,NULL,,34000,Montpellier,,,,,,,NULL,"""Tramway """"station Comédie"""" ou """"Gares""""",";Ligne de bus nÂ° 4, 5, 6, 7, 8, 11, 14, 15, 16",<h5>Clubs sportifs et disciplines<br />Â </h5><ul><li>AS Senzala Capoeira (04 67 99 39 10)</li><li>Cercle Artistique Danse Orientale (06 65 70 33 74)</li><li>Gazelles d'Orient Danse Orientale (04 67 58 60 54)</li><li>Axe Bahia Capoeira (06 63 46 50 11) </l,NULL
699745,92,,75842119,2,Gymnase Jean Ramel,43.605185193204,3.85647566074417,107052,#SPORT#GYMNASE,Rue José Maria de Heredia,34000,MONTPELLIER,Gymnase Jean-Ramel,Gymnases,Montpellier Centre,04 67 27 49 14,,,,,NULL,NULL,,NULL,Rue José-Maria-de-Hérédia,NULL,,34070,Montpellier,,,,,,,NULL,,ligne 11,<h5>Clubs sportifs<br />Â </h5><ul><li>A.M.R.S Volley loisir (04 67 66 34 42) </li><li>A.R.E.C.R.E.E Basket loisir (04 67 27 91 70)</li><li>COOLVolley (06 03 20 62 33) </li><li>ASPTT Volley loisir (04 99 52 60 70) </li><li>Montpellier VBA Volley loisir (04,NULL
699406,451,,76170692,2,Gymnase Alain le Hetet,43.6056150620547,3.90609886909115,107052,#SPORT#GYMNASE,Route de Vauguières,34000,MONTPELLIER,Gymnase Alain Le Hetet,Gymnases,Port Marianne,,,,,,NULL,NULL,237,NULL,route de Vauguières,NULL,,34000,Montpellier,,,,,,,NULL,tramway 1 : station Odysseum,"""Lignes de bus : """"la ronde"""", NÂ°29""",<p><strong>Horaires</strong><br /><br />Dans la Journée : écoles et collèges <br />18h-22h : clubs </p><p>Dans tous les cas une demande de créneaux devra ètre faites auprès du service des Sports.<br />Â Â <br /><strong>Tarifs</strong><br />Gratuits pour les,NULL
699734,364,,,1,Salle de boxe Jean Farre,43.6056360863777,3.85649975807476,107052,#SPORT#GYMNASE,Rue José Maria de Heredia,34000,MONTPELLIER,Salle de boxe Jean Farre,Salles de sports,Montpellier Centre,04 67 69 94 51,,,,,NULL,NULL,,NULL,Rue José-Maria-de-Heredia,NULL,,34000,Montpellier,,,,,,,NULL,,ligne 11,<h5>Horaires et tarifs </h5><ul><li>Se renseigner directement auprès du club (04 67 69 94 51) </li></ul>,NULL
699564,363,,595083502,1,Gymnase Olympie,43.6071343,3.8934476,107052,#SPORT#GYMNASE,Avenue Jacques Cartier,34000,MONTPELLIER,Gymnase Olympie,Gymnases,Montpellier Centre,,,,,,NULL,NULL,,NULL,Avenue Jacques-Cartier,NULL,,34000,Montpellier,,,,,,,NULL,,,<h5>Clubs sportifs et disciplines<br />Â </h5><ul><li>Communauté d'Agglomération de Montpellier Volley (04 67 13 61 28) </li><li>Majorettes de Montpellier (04 67 45 65 87)</li><li>Montpellier Handball (04 99 61 44 55)</li><li>Â V.L.C.A Volley (04 67 70 89 8,NULL
699735,367,,,1,Salle de sports Peyrou Escrime,43.6112423,3.8767336,107052,#SPORT#GYMNASE,"1, place Jacques Mirouze",34000,MONTPELLIER,Salle de sports Peyrou,Salles de sports,Montpellier Centre,04 67 63 59 53,,,,,NULL,NULL,1,NULL,place Jacques-Mirouze,NULL,,34000,Montpellier,,,,,,,NULL,,"""Lignes de bus : NÂ° 6, 7, 16",,NULL
699641,124,,76183061,2,Gymnase Mireille Bessière,43.6120654772317,3.90828171897218,107052,#SPORT#GYMNASE,Rue Édouard Villalonga,34000,MONTPELLIER,Salle de sports Mireille Bessière,Salles de sports,Montpellier Centre,,,,,,NULL,NULL,,NULL,Rue Edouard Villalonga,NULL,,34000,Montpellier,,,,,,,NULL,,,,NULL
699743,25,,75990536,2,Gymnase Michelle Ostermeyer,43.6132220058027,3.8500244149568,107052,#SPORT#GYMNASE,Rue de Las Sorbes,34000,MONTPELLIER,Gymnase Micheline Ostermeyer,Gymnases,Les Cévennes,04 67 54 69 15,,,,,NULL,NULL,,NULL,Rue de Las-Sorbes,NULL,,34070,Montpellier,,,,,,,NULL,,,<h5>Clubs sportifs et disciplines<br />Â </h5><ul><li>FFEPGV Tesse Gymnastique Loisir (04 67 75 42 49)</li><li>MUC Handball (04 67 79 13 25) </li><li>V.L.M Volley (04 67 40 40 69) </li></ul><h5>Â <br />Horaires</h5><ul><li>dans la Journée : lycées</li><li>1,NULL
699577,507,,49001203,2,Gymnase Rimbaud,43.6169651787175,3.82212614931152,107052,#SPORT#GYMNASE,Rue Mohamed V,34000,MONTPELLIER,Gymnase Arthur Rimbaud,Gymnases,Mosson,,,,,,NULL,NULL,2,NULL,rue Marius-Petipa,NULL,,34080,Montpellier,,,,,,,NULL,,,<h5>Â Clubs sportifs et disciplines<br />Â </h5><ul><li>Come on Volley : Volley (04 67 66 01 34)</li><li>AS Sourds de Montpellier Volley : Volley TélécopieÂ  (04 67 20 89 69) </li><li>Montpellier Basket : Mosson Basket (06 20 77 24 03)</li><li>ISIM Ominispor,NULL
699570,187,,76007214,2,Gymnase Paul Rocca,43.6171755249194,3.83820734389412,107052,#SPORT#GYMNASE,Rue Paul Rimbaud,34000,MONTPELLIER,Gymnase Paul-Rocca,Gymnases,Les Cévennes,,,,,,NULL,NULL,,NULL,Avenue Paul-Rimbaud,NULL,,34080,Montpellier,,,,,,,NULL,,"""""""La Ronde"""" """,<h5>Clubs sportifs et disciplines</h5><ul><li>Montpellier Basket Club (04 67 59 91 34)</li><li>AS Police Volley (04 99 13 55 71)</li><li>MUC Basket (04 99 58 35 35)</li><li>MUC Handball (04 67 79 13 25)</li><li>Étudiants Calédoniens Omnisports (04 67 75 6,NULL
699715,90,,46533919,2,Gymnase Les Arts,43.6179147039509,3.88256600062091,107052,#SPORT#GYMNASE,Rue de la Cavalerie,34000,MONTPELLIER,Gymnase Les Arts,Gymnases,Montpellier Centre,,,,,,NULL,NULL,,NULL,Rue de la Cavalerie,NULL,,34000,Montpellier,,,,,,,NULL,,,<h5>Clubs sportifs et disciplines<br />Â </h5><ul><li>Agropolis Volley loisir (04 67 04 63 86) </li><li>A.M.R.S Gymnastique loisir 04 67 04 59 47</li><li>A.S.B.A.M Volley 04 67 72 32 87 </li></ul><h5><br />Â <br />Horaires</h5><ul><li>Dans la Journée : écol,NULL
699850,189,,629039078,1,Salle de sports Louis Nègre,43.6185853,3.8472943,107052,#SPORT#GYMNASE,Rue Paul Rimbaud,34000,MONTPELLIER,Salle de sports Louis Nègre,Salles de sports,Les Cévennes,04 67 54 70 21,,,,,NULL,NULL,,NULL,Rue Paul Rimbaud,NULL,,34080,Montpellier,,,,,,,NULL,,"ligne 6, La Ronde","<h5>Clubs sportifs et disciplines</h5><ul><li>CEP Montpellier Gymnastique sportive (04 67 63 82 02) </li><li>Gymnastique sportive 04 67 92 43 32 </li></ul><h5>Â <br />Horaires</h5><ul><li>Dans la Journée : écoles, collèges, Universités</li><li>18h - 22h : ",NULL
699612,366,,22991839,2,Gymnase Alain Achille,43.6186048809019,3.86912327027099,107052,#SPORT#GYMNASE,Place Marcel Godechot,34000,MONTPELLIER,Salle de sports Alain Achille,Salles de sports,Montpellier Centre,04 67 64 18 12,,,,,NULL,NULL,1,NULL,place Marcel-Godechot,NULL,,34000,Montpellier,,,,,,,NULL,"""Tramway 1 : Station """"Saint Eloi"""", La Ronde, La Navette ",,,;;;NULL
699427,190,,,1,Salle de sports Jouanique,43.62098565,3.84755445,107052,#SPORT#GYMNASE,Rue Jacques Dalcroze,34000,MONTPELLIER,Salle de sports Bernard Jouanique,Salles de sports,Les Cévennes,,,,,,NULL,NULL,,NULL,Rue Jacques Dalcroze,NULL,,34000,Montpellier,,,,,,,NULL,,,,NULL
699366,186,,28380574,2,Gymnase Bernard Jouanique,43.6210157203712,3.84699186225245,107052,#SPORT#GYMNASE,Rue Dalcroze,34000,MONTPELLIER,Gymnase Bernard-Jouanique,Gymnases,Les Cévennes,04 67 54 63 99,,,,,,,,,Rue,Jacques-Dalcroze,,34080,Montpellier,1319,,,,,,,,ligne 16,"""<p><strong>Les clubs et disciplines </strong></p> <ul> <li>Montpellier (Basket) Club Basket, &#160","04 67 59 91 34</li> <li>Montpellier GRS (Gymnastique Rythmique et Sportive), &#160"
699830,26,,621952959,1,Salle de sports Isadora Duncan,43.6217317,3.8423711,107052,#SPORT#GYMNASE,Rue des Avant-Monts,34000,MONTPELLIER,Salle de sports Isadora Duncan,Salles de sports,Les Cévennes,04 67 64 79 24,,,,,NULL,NULL,,NULL,Rue des Avants Monts,NULL,,34080,Montpellier,,,,,,,NULL,,ligne 16,<h5>Clubs sportifs et disciplines<br />Â </h5><ul><li>Â FFEPGV Les Cévennes Gymnastique loisir (04 67 63 43 74) </li><li>Montpellier GRS Rythmique et Sportive (04 67 63 04 26)</li><li>AS Montpellier Full Contact (06 25 70 65 31)</li><li>Harmonie de Soi Spor,NULL
699530,505,,629034134,1,Salle de sports Lou Clapas,43.6231376,3.8117624,107052,#SPORT#GYMNASE,Avenue de Heidelberg,34000,MONTPELLIER,Salle de sports Lou Clapas,Salles de sports,Mosson,,,,,,,,,,Avenue de Heidelberg,de Heidelberg,,34080,Montpellier,,,,,,,,"""Ligne 1 - Station """"Mosson""","""Ligne 14, 25",";<ul> <li>Transfert &#224"" la Communaut&#233",
699361,163,,74004408,2,Gymnase Jean Bouin,43.6329006711375,3.82068351630232,107052,#SPORT#GYMNASE,Avenue du Biterrois,34000,MONTPELLIER,Gymnase Jean-Bouin,Gymnases,Mosson,,,,,,NULL,NULL,,NULL,Avenue du Bitterois,NULL,,34080,Montpellier,,,,,,,NULL,,,<h5>Â Clubs sportifs et disciplines<br />Â </h5><ul><li>ACEP Omnisports (06 23 81 42 72)</li><li>AS Paillade Volley (04 67 07 96 09)</li><li>Majorettes Impériales Paillade (04 67 75 07 22)</li><li>Â ISIM Omnisports (04 67 14 30 97) </li><li>Â Mayouri Omnispor,NULL
699576,506,,74010289,2,Gymnase Les Garrigues,43.6425970717674,3.81573223250106,107052,#SPORT#GYMNASE,Avenue du Comté de Nice,34000,MONTPELLIER,Gymnase Les Garrigues,Gymnases,Mosson,,,,,,NULL,NULL,145,NULL,avenue du Comté-de-Nice,NULL,,34080,Montpellier,,,,,,,NULL,,,<h5>Â Clubs sportifs et disciplines<br />Â </h5><ul><li>Montpellier Badminton (04 67 84 01 19) </li><li>Mosson Full Contact (06 60 05 36 00) </li><li>AS Agropolis Volley (04 67 04 63 86) </li><li>Come on Volley (04 67 66 01 34) </li><li>Â Montpellier VolleyÂ ,NULL
699652,74,,75758608,2,Gymnase Roger Couderc,,,107052,#SPORT#GYMNASE,Rue du Mas de Lemasson,34000,MONTPELLIER,Gymnase Roger Couderc,Gymnases,Croix d'Argent,,,,,,NULL,NULL,,NULL,Rue du Mas de Lemasson,NULL,,34070,Montpellier,,,,,,,NULL,,ligne 5,"<h5>Clubs sportifs et disciplines<br />Â </h5><ul><li>Croix d'Argent Basket (04 67 42 89 88) </li></ul><h5>Â <br />Horaires</h5><ul><li>dans la Journée : écoles, collèges, lycées</li><li>18h - 22h : Clubs </li></ul><p>Dans tous les cas, une demande de créne",NULL
